[
    {
        "website": "", 
        "national_phone_number": "09 82 28 00 36", 
        "tags": [
            "vegetarian"
        ], 
        "phone": "09 82 28 00 36", 
        "address": "25 avenue de la 5e division blind\u00e9e <br />\r\n68000 Colmar", 
        "lat": 48.0826609, 
        "id": 4694, 
        "name": "10 Numara Cigkofte Colmar", 
        "absolute_url": "http://vegoresto.fr/resto/10-numara-cigkofte", 
        "lon": 7.35534989999996, 
        "international_phone_number": "+33982280036"
    }, 
    {
        "website": "", 
        "national_phone_number": "06 47 24 47 44", 
        "tags": [
            "gluten-free"
        ], 
        "phone": "06 47 24 47 44", 
        "address": "2 rue Saint Jean<br />\r\n68000 Colmar", 
        "lat": 48.0741097, 
        "id": 268, 
        "name": "100% Le Bar \u00e0 Jus", 
        "absolute_url": "http://vegoresto.fr/resto/100-le-bar-a-jus", 
        "lon": 7.35694450000005, 
        "international_phone_number": "+33647244744"
    }, 
    {
        "website": "http://www.2sousdetable.com", 
        "national_phone_number": "03 62 57 11 25", 
        "tags": [], 
        "phone": "03 62 57 11 25", 
        "address": "56 rue de Gand<br />\r\n59000 Lille", 
        "lat": 50.6425671, 
        "id": 275, 
        "name": "2 sous de table", 
        "absolute_url": "http://vegoresto.fr/resto/2-sous-de-table", 
        "lon": 3.0667459, 
        "international_phone_number": "+33362571125"
    }, 
    {
        "website": "", 
        "national_phone_number": "01 42 06 05 99", 
        "tags": [
            "vegetarian", 
            "gluten-free"
        ], 
        "phone": "01 42 06 05 99", 
        "address": "44 rue de Provence<br />\r\n75009 Paris", 
        "lat": 48.8744083, 
        "id": 4675, 
        "name": "3 Bio", 
        "absolute_url": "http://vegoresto.fr/resto/3-bio", 
        "lon": 2.33605820000002, 
        "international_phone_number": "+33142060599"
    }, 
    {
        "website": "42degres.com/", 
        "national_phone_number": "09 73 65 77 88", 
        "tags": [
            "vegan"
        ], 
        "phone": "09 73 65 77 88", 
        "address": "109, rue du faubourg Poissonni\u00e8re<br />\r\n75009 Paris", 
        "lat": 48.8776168, 
        "id": 274, 
        "name": "42 degr\u00e9s", 
        "absolute_url": "http://vegoresto.fr/resto/42-degres", 
        "lon": 2.34891160000006, 
        "international_phone_number": "+33973657788"
    }, 
    {
        "website": "www.abraijade.fr/", 
        "national_phone_number": "04 93 35 65 65", 
        "tags": [
            "gluten-free"
        ], 
        "phone": "04 93 35 65 65", 
        "address": "66 rue longue<br />\r\n06500 Menton", 
        "lat": 43.7784981, 
        "id": 180, 
        "name": "A Braijade Meridiounale", 
        "absolute_url": "http://vegoresto.fr/resto/a-braijade-meridiounale", 
        "lon": 7.50686169999994, 
        "international_phone_number": "+33493356565"
    }, 
    {
        "website": "", 
        "national_phone_number": "02 98 97 56 43", 
        "tags": [
            "vegan"
        ], 
        "phone": "02 98 97 56 43", 
        "address": "3 bis rue du G\u00e9n\u00e9ral Morvan<br />\r\n29900 Concarneau", 
        "lat": 47.8733116, 
        "id": 271, 
        "name": "Ah la belle histoire", 
        "absolute_url": "http://vegoresto.fr/resto/ah-la-belle-histoire", 
        "lon": -3.91853070000002, 
        "international_phone_number": "+33298975643"
    }, 
    {
        "website": "", 
        "national_phone_number": "02 99 79 08 36", 
        "tags": [], 
        "phone": "02 99 79 08 36", 
        "address": "5 rue Motte Fablet<br />\r\n35000 Rennes", 
        "lat": 48.1140527, 
        "id": 4010, 
        "name": "Al Saj", 
        "absolute_url": "http://vegoresto.fr/resto/al-saj", 
        "lon": -1.67948999999999, 
        "international_phone_number": "+33299790836"
    }, 
    {
        "website": "", 
        "national_phone_number": "06 63 96 93 53", 
        "tags": [
            "vegan"
        ], 
        "phone": "06 63 96 93 53", 
        "address": "83400 Hyeres", 
        "lat": 43.107465, 
        "id": 4660, 
        "name": "Ammendola", 
        "absolute_url": "http://vegoresto.fr/resto/ammendola", 
        "lon": 6.13149279999993, 
        "international_phone_number": "+33663969353"
    }, 
    {
        "website": "www.arbol-restaurant.com/", 
        "national_phone_number": "06 33 51 85 52", 
        "tags": [], 
        "phone": "06 33 51 85 52", 
        "address": "4, rue de la Merci<br />\r\n33000 Bordeaux", 
        "lat": 44.8388748, 
        "id": 195, 
        "name": "Arbol", 
        "absolute_url": "http://vegoresto.fr/resto/arbol", 
        "lon": -0.573406400000067, 
        "international_phone_number": "+33633518552"
    }, 
    {
        "website": "www.artsthesmiss.sitew.com/#Accueil.A", 
        "national_phone_number": "06 63 42 85 24", 
        "tags": [
            "vegetarian", 
            "gluten-free"
        ], 
        "phone": "06 63 42 85 24", 
        "address": "19 rue des R\u00e9vennes<br />\r\n06600 Vieil-Antibes", 
        "lat": 43.580418, 
        "id": 215, 
        "name": "Arts Th\u00e9s Miss", 
        "absolute_url": "http://vegoresto.fr/resto/arts-thes-miss", 
        "lon": 7.12510199999997, 
        "international_phone_number": "+33663428524"
    }, 
    {
        "website": "www.aubonmarche-orleans.com/", 
        "national_phone_number": "02 38 53 04 35", 
        "tags": [], 
        "phone": "02 38 53 04 35", 
        "address": "12 place du Ch\u00e2telet<br />\r\n45000 Orl\u00e9ans", 
        "lat": 47.8991595, 
        "id": 232, 
        "name": "Au bon march\u00e9", 
        "absolute_url": "http://vegoresto.fr/resto/au-bon-marche", 
        "lon": 1.90666510000005, 
        "international_phone_number": "+33238530435"
    }, 
    {
        "website": "", 
        "national_phone_number": "03 88 35 49 86", 
        "tags": [
            "vegetarian"
        ], 
        "phone": "03 88 35 49 86", 
        "address": "24 rue Sainte-Madeleine<br />\r\n67000 Strasbourg", 
        "lat": 48.5789394, 
        "id": 197, 
        "name": "Au Potiron", 
        "absolute_url": "http://vegoresto.fr/resto/au-potiron", 
        "lon": 7.75480049999999, 
        "international_phone_number": "+33388354986"
    }, 
    {
        "website": "www.aubergeduvernolon.fr/", 
        "national_phone_number": "04 77 51 50 07", 
        "tags": [], 
        "phone": "04 77 51 50 07", 
        "address": "Le Vernolon<br />\r\n42220 Colombier", 
        "lat": 45.360295, 
        "id": 217, 
        "name": "Auberge du Vernolon", 
        "absolute_url": "http://vegoresto.fr/resto/auberge-du-vernolon", 
        "lon": 4.59416599999997, 
        "international_phone_number": "+33477515007"
    }, 
    {
        "website": "", 
        "national_phone_number": "03 21 05 36 21", 
        "tags": [
            "gluten-free"
        ], 
        "phone": "03 21 05 36 21", 
        "address": "20 rue saint jean <br />\r\n62520 Le Touquet", 
        "lat": 50.5242281, 
        "id": 182, 
        "name": "Aux Mignardises Saint-Jean", 
        "absolute_url": "http://vegoresto.fr/resto/aux-mignardises-saint-jean", 
        "lon": 1.58359629999995, 
        "international_phone_number": "+33321053621"
    }, 
    {
        "website": "basilic-instant.e-monsite.com/", 
        "national_phone_number": "03 81 83 17 78", 
        "tags": [
            "vegan", 
            "gluten-free"
        ], 
        "phone": "03 81 83 17 78", 
        "address": "93 rue des Granges<br />\r\n25000 Besan\u00e7on", 
        "lat": 47.2369769, 
        "id": 218, 
        "name": "Basilic Instant", 
        "absolute_url": "http://vegoresto.fr/resto/basilic-instant", 
        "lon": 6.0286188, 
        "international_phone_number": "+33381831778"
    }, 
    {
        "website": "www.batbat.fr/", 
        "national_phone_number": "05 61 42 24 22", 
        "tags": [], 
        "phone": "05 61 42 24 22", 
        "address": "All\u00e9e Olympe de Gouges<br />\r\n31770 Colomiers", 
        "lat": 43.5948781, 
        "id": 178, 
        "name": "BATbat (Colomiers)", 
        "absolute_url": "http://vegoresto.fr/resto/batbat-colomiers", 
        "lon": 1.35333430000003, 
        "international_phone_number": "+33561422422"
    }, 
    {
        "website": "www.batbat.fr/", 
        "national_phone_number": "05 61 25 49 49", 
        "tags": [], 
        "phone": "05 61 25 49 49", 
        "address": "8 rue des Filatiers<br />\r\n31000 Toulouse", 
        "lat": 43.5981845, 
        "id": 179, 
        "name": "BATbat (Toulouse)", 
        "absolute_url": "http://vegoresto.fr/resto/batbat-toulouse", 
        "lon": 1.44427819999999, 
        "international_phone_number": "+33561254949"
    }, 
    {
        "website": "", 
        "national_phone_number": "03 81 50 83 45", 
        "tags": [
            "vegetarian", 
            "vegan", 
            "gluten-free"
        ], 
        "phone": "03 81 50 83 45", 
        "address": "79 rue des Granges<br />\r\n25000 Besan\u00e7on", 
        "lat": 47.2371425, 
        "id": 241, 
        "name": "B\u00eatises et Volup\u2019th\u00e9", 
        "absolute_url": "http://vegoresto.fr/resto/betises-volupthe", 
        "lon": 6.02757410000004, 
        "international_phone_number": "+33381508345"
    }, 
    {
        "website": "", 
        "national_phone_number": "03 69 07 36 31", 
        "tags": [
            "vegan", 
            "gluten-free"
        ], 
        "phone": "03 69 07 36 31", 
        "address": "36 rue de l&#039;Arsenal<br />\r\n68100  Mulhouse", 
        "lat": 47.7468644, 
        "id": 4019, 
        "name": "Biofresh", 
        "absolute_url": "http://vegoresto.fr/resto/biofresh", 
        "lon": 7.33362899999997, 
        "international_phone_number": "+33369073631"
    }, 
    {
        "website": "http://www.bis2fly.com/", 
        "national_phone_number": "09 72 45 09 95", 
        "tags": [
            "gluten-free"
        ], 
        "phone": "09 72 45 09 95", 
        "address": "19 rue Nicolas Leblanc<br />\r\n59000 Lille", 
        "lat": 50.6296016, 
        "id": 3999, 
        "name": "Bis2Fly", 
        "absolute_url": "http://vegoresto.fr/resto/bis2fly", 
        "lon": 3.06179980000002, 
        "international_phone_number": "+33972450995"
    }, 
    {
        "website": "www.bistrotetchocolat.net/", 
        "national_phone_number": "03 88 36 39 60", 
        "tags": [
            "vegetarian", 
            "gluten-free"
        ], 
        "phone": "03 88 36 39 60", 
        "address": "8 rue de la R\u00e2pe<br />\r\n67000 Strasbourg", 
        "lat": 48.5815328, 
        "id": 221, 
        "name": "Bistrot et Chocolat", 
        "absolute_url": "http://vegoresto.fr/resto/bistrot-et-chocolat", 
        "lon": 7.75296159999994, 
        "international_phone_number": "+33388363960"
    }, 
    {
        "website": "http://www.boq-restaurant.fr/", 
        "national_phone_number": "02 99 54 95 91", 
        "tags": [
            "gluten-free"
        ], 
        "phone": "02 99 54 95 91", 
        "address": "5, Place de Bretagne<br />\r\n35000 Rennes", 
        "lat": 48.1094967, 
        "id": 4587, 
        "name": "BOQ", 
        "absolute_url": "http://vegoresto.fr/resto/boq", 
        "lon": -1.683626, 
        "international_phone_number": "+33299549591"
    }, 
    {
        "website": "", 
        "national_phone_number": "01 45 78 22 35", 
        "tags": [
            "vegan", 
            "gluten-free"
        ], 
        "phone": "01 45 78 22 35", 
        "address": "99 rue du Th\u00e9\u00e2tre<br />\r\n75015 Paris", 
        "lat": 48.8468432, 
        "id": 4018, 
        "name": "Brasserie Lola", 
        "absolute_url": "http://vegoresto.fr/resto/brasserie-lola", 
        "lon": 2.29370270000004, 
        "international_phone_number": "+33145782235"
    }, 
    {
        "website": "", 
        "national_phone_number": "09 54 89 42 12", 
        "tags": [], 
        "phone": "09 54 89 42 12", 
        "address": "24 rue du onze novembre<br />\r\n42100 Saint-\u00c9tienne", 
        "lat": 45.428271, 
        "id": 201, 
        "name": "Byblos", 
        "absolute_url": "http://vegoresto.fr/resto/byblos", 
        "lon": 4.39020470000003, 
        "international_phone_number": "+33954894212"
    }, 
    {
        "website": "http://ccomcafe.com/", 
        "national_phone_number": "02 98 85 14 46", 
        "tags": [], 
        "phone": "02 98 85 14 46", 
        "address": "26 rue de Siam<br />\r\n29200 Brest", 
        "lat": 48.3860054, 
        "id": 4005, 
        "name": "C. Com Caf\u00e9 (Brest)", 
        "absolute_url": "http://vegoresto.fr/resto/c-com-cafe-brest", 
        "lon": -4.49205359999996, 
        "international_phone_number": "+33298851446"
    }, 
    {
        "website": "http://ccomcafe.com/", 
        "national_phone_number": "02 98 95 81 62", 
        "tags": [], 
        "phone": "02 98 95 81 62", 
        "address": "9 quai Port au Vin <br />\r\n29000 Quimper", 
        "lat": 47.9950227, 
        "id": 4004, 
        "name": "C. Com Caf\u00e9 (Quimper)", 
        "absolute_url": "http://vegoresto.fr/resto/c-com-cafe-quimper", 
        "lon": -4.10571030000006, 
        "international_phone_number": "+33298958162"
    }, 
    {
        "website": "www.cafe-ginger.fr", 
        "national_phone_number": "06 75 05 63 70", 
        "tags": [
            "vegan", 
            "gluten-free"
        ], 
        "phone": "06 75 05 63 70", 
        "address": "9 rue Jacques C\u0153ur<br />\r\n75004 Paris", 
        "lat": 48.8528822, 
        "id": 190, 
        "name": "Caf\u00e9 Ginger", 
        "absolute_url": "http://vegoresto.fr/resto/cafe-ginger", 
        "lon": 2.3673278, 
        "international_phone_number": "+33675056370"
    }, 
    {
        "website": "www.capsantalucia.fr", 
        "national_phone_number": "04 94 83 93 99", 
        "tags": [], 
        "phone": "04 94 83 93 99", 
        "address": "101 Quai Commandant Le Prieur<br />\r\nPort Santa Lucia<br />\r\n83700 Saint Rapha\u00ebl", 
        "lat": 43.4148769, 
        "id": 4706, 
        "name": "Cap Santa Lucia", 
        "absolute_url": "http://vegoresto.fr/resto/cap-santa-lucia", 
        "lon": 6.78052709999997, 
        "international_phone_number": "+33494839399"
    }, 
    {
        "website": "www.caravanserail-cafe.com/", 
        "national_phone_number": "09 52 46 45 38", 
        "tags": [
            "vegetarian", 
            "gluten-free"
        ], 
        "phone": "09 52 46 45 38", 
        "address": "10 rue du 4 ao\u00fbt 1789<br />\r\n69100 Villeurbanne", 
        "lat": 45.7637861, 
        "id": 270, 
        "name": "Caravanserail Caf\u00e9", 
        "absolute_url": "http://vegoresto.fr/resto/caravanserail-cafe", 
        "lon": 4.87501359999999, 
        "international_phone_number": "+33952464538"
    }, 
    {
        "website": "http://www.carmenragosta.com/", 
        "national_phone_number": "01 42 49 00 71", 
        "tags": [
            "vegan", 
            "gluten-free"
        ], 
        "phone": "01 42 49 00 71", 
        "address": "8 rue de la Grange aux Belles<br />\r\n75010 Paris", 
        "lat": 48.8733032, 
        "id": 4001, 
        "name": "Carmen Ragosta Mode et Cuisine", 
        "absolute_url": "http://vegoresto.fr/resto/carmen-ragosta-mode-et-cuisine", 
        "lon": 2.36471230000006, 
        "international_phone_number": "+33142490071"
    }, 
    {
        "website": "www.carottesgingembre.fr", 
        "national_phone_number": "05 46 33 90 57", 
        "tags": [
            "vegetarian", 
            "gluten-free"
        ], 
        "phone": "05 46 33 90 57", 
        "address": "36 Rue des Bancs<br />\r\n17400 Saint Jean d&#039;Ang\u00e9ly", 
        "lat": 45.9428891, 
        "id": 183, 
        "name": "Carottes et gingembre", 
        "absolute_url": "http://vegoresto.fr/resto/carottes-et-gingembre", 
        "lon": -0.521772100000021, 
        "international_phone_number": "+33546339057"
    }, 
    {
        "website": "cassenoisettevegetarien.com", 
        "national_phone_number": "09 83 77 58 04", 
        "tags": [
            "vegetarian", 
            "gluten-free"
        ], 
        "phone": "09 83 77 58 04", 
        "address": "92 rue Docteur Vigne<br />\r\n76600 Le Havre", 
        "lat": 49.4978279, 
        "id": 4026, 
        "name": "Casse-Noisette", 
        "absolute_url": "http://vegoresto.fr/resto/casse-noisette", 
        "lon": 0.111680500000034, 
        "international_phone_number": "+33983775804"
    }, 
    {
        "website": "http://celoma.canalblog.com/", 
        "national_phone_number": "05 53 50 85 81", 
        "tags": [
            "vegetarian"
        ], 
        "phone": "05 53 50 85 81", 
        "address": "Le bourg<br />\r\n24290 Thonac", 
        "lat": 45.0501482, 
        "id": 4680, 
        "name": "Celoma", 
        "absolute_url": "http://vegoresto.fr/resto/celoma", 
        "lon": 1.15675420000002, 
        "international_phone_number": "+33553508581"
    }, 
    {
        "website": "http://www.chezhelen.fr/accueil.html", 
        "national_phone_number": "04 92 93 88 52", 
        "tags": [
            "vegetarian"
        ], 
        "phone": "04 92 93 88 52", 
        "address": "35, rue des Revennes<br />\r\n06600 Antibes", 
        "lat": 43.5801301, 
        "id": 4696, 
        "name": "Chez Helen", 
        "absolute_url": "http://vegoresto.fr/resto/chez-helen", 
        "lon": 7.12550780000004, 
        "international_phone_number": "+33492938852"
    }, 
    {
        "website": "", 
        "national_phone_number": "07 81 81 18 14", 
        "tags": [
            "vegan"
        ], 
        "phone": "07 81 81 18 14", 
        "address": "23 rue Pailleron<br />\r\n69004 Lyon", 
        "lat": 45.7795252, 
        "id": 4003, 
        "name": "Color Vegan", 
        "absolute_url": "http://vegoresto.fr/resto/color-vegan", 
        "lon": 4.83441110000001, 
        "international_phone_number": "+33781811814"
    }, 
    {
        "website": "", 
        "national_phone_number": "02 97 43 40 57", 
        "tags": [], 
        "phone": "02 97 43 40 57", 
        "address": "32 rue du Port<br />\r\n56000 Vannes", 
        "lat": 47.6528155, 
        "id": 4153, 
        "name": "Cr\u00eaperie du Port", 
        "absolute_url": "http://vegoresto.fr/resto/creperie-du-port", 
        "lon": -2.75944290000007, 
        "international_phone_number": "+33297434057"
    }, 
    {
        "website": "http://www.cuisine-cruenelle.com/", 
        "national_phone_number": "06 28 07 12 79", 
        "tags": [
            "gluten-free"
        ], 
        "phone": "06 28 07 12 79", 
        "address": "Arquejols<br />\r\n43340 Rauret", 
        "lat": 44.806864, 
        "id": 4021, 
        "name": "Cru en Elle", 
        "absolute_url": "http://vegoresto.fr/resto/cru-en-elle", 
        "lon": 3.82324300000005, 
        "international_phone_number": "+33628071279"
    }, 
    {
        "website": "http://cuisine-verte.com/", 
        "national_phone_number": "07 60 13 13 73", 
        "tags": [
            "vegetarian", 
            "gluten-free"
        ], 
        "phone": "07 60 13 13 73", 
        "address": "50000 Saint-L\u00f4", 
        "lat": 49.1154686, 
        "id": 4165, 
        "name": "Cuisine Verte", 
        "absolute_url": "http://vegoresto.fr/resto/cuisine-verte", 
        "lon": -1.08281360000001, 
        "international_phone_number": "+33760131373"
    }, 
    {
        "website": "", 
        "national_phone_number": "09 73 54 79 83", 
        "tags": [], 
        "phone": "09 73 54 79 83", 
        "address": "85 rue de la Monnaie<br />\r\n59000 Lille", 
        "lat": 50.6416511, 
        "id": 219, 
        "name": "De Rode Koe", 
        "absolute_url": "http://vegoresto.fr/resto/de-rode-koe", 
        "lon": 3.06175159999998, 
        "international_phone_number": "+33973547983"
    }, 
    {
        "website": "http://declicsalade.fr/", 
        "national_phone_number": "03 68 62 02 12", 
        "tags": [], 
        "phone": "03 68 62 02 12", 
        "address": "11 rue du Verdon<br />\r\n67100 Strasbourg", 
        "lat": 48.5506921, 
        "id": 4035, 
        "name": "Declic\u2019Salade", 
        "absolute_url": "http://vegoresto.fr/resto/declicsalade", 
        "lon": 7.73735439999996, 
        "international_phone_number": "+33368620212"
    }, 
    {
        "website": "http://www.delhidelice.fr/", 
        "national_phone_number": "04 42 26 53 06", 
        "tags": [], 
        "phone": "04 42 26 53 06", 
        "address": "22 rue F\u00e9libre Gaut<br />\r\n13100 Aix-en-Provence", 
        "lat": 43.5287445, 
        "id": 4624, 
        "name": "Delhi D\u00e9lice", 
        "absolute_url": "http://vegoresto.fr/resto/delhi-delice", 
        "lon": 5.44681560000004, 
        "international_phone_number": "+33442265306"
    }, 
    {
        "website": "http://dmerveilles.com/", 
        "national_phone_number": "03 62 13 23 05", 
        "tags": [
            "gluten-free"
        ], 
        "phone": "03 62 13 23 05", 
        "address": "270 rue des Fusill\u00e9s <br />\r\n59650 Villeneuve d&#039;Ascq", 
        "lat": 50.6088221, 
        "id": 171, 
        "name": "Des Merveilles dans la Th\u00e9i\u00e8re", 
        "absolute_url": "http://vegoresto.fr/resto/des-merveilles-dans-la-theiere", 
        "lon": 3.16384270000003, 
        "international_phone_number": "+33362132305"
    }, 
    {
        "website": "", 
        "national_phone_number": null, 
        "tags": [
            "vegan"
        ], 
        "phone": "Pas de t\u00e9l\u00e9phone.", 
        "address": "1 boulevard Bigo Danel<br />\r\n59000 Lille", 
        "lat": 50.6275538, 
        "id": 4014, 
        "name": "Do It Yourself Caf\u00e9", 
        "absolute_url": "http://vegoresto.fr/resto/do-it-yourself-cafe", 
        "lon": 3.04202810000004, 
        "international_phone_number": null
    }, 
    {
        "website": "http://www.duneparis.fr/", 
        "national_phone_number": "01 43 57 83 15", 
        "tags": [], 
        "phone": "01 43 57 83 15", 
        "address": "20 rue Keller<br />\r\n75011 Paris", 
        "lat": 48.8548579, 
        "id": 4017, 
        "name": "Dune", 
        "absolute_url": "http://vegoresto.fr/resto/dune", 
        "lon": 2.37608879999993, 
        "international_phone_number": "+33143578315"
    }, 
    {
        "website": "www.dileenilenoirmoutier.com/", 
        "national_phone_number": "02 51 39 64 47", 
        "tags": [], 
        "phone": "02 51 39 64 47", 
        "address": "104 avenue Mourain<br />\r\nL&#039;Herbaudi\u00e8re<br />\r\n85330 \u00cele de Noirmoutier", 
        "lat": 47.0187693, 
        "id": 214, 
        "name": "D\u2019Ile en ile", 
        "absolute_url": "http://vegoresto.fr/resto/dile-en-ile", 
        "lon": -2.29705609999996, 
        "international_phone_number": "+33251396447"
    }, 
    {
        "website": "edskitchen.blogspot.fr/", 
        "national_phone_number": "06 31 75 86 10", 
        "tags": [], 
        "phone": "06 31 75 86 10", 
        "address": "74140 Excenevex", 
        "lat": 46.354408, 
        "id": 194, 
        "name": "Ed\u2019s Kitchen", 
        "absolute_url": "http://vegoresto.fr/resto/eds-kitchen", 
        "lon": 6.35294999999996, 
        "international_phone_number": "+33631758610"
    }, 
    {
        "website": "", 
        "national_phone_number": "04 78 42 68 13", 
        "tags": [
            "gluten-free"
        ], 
        "phone": "04 78 42 68 13", 
        "address": "66 avenue F\u00e9lix Faure<br />\r\n69003 Lyon", 
        "lat": 45.7528665, 
        "id": 277, 
        "name": "Elfie", 
        "absolute_url": "http://vegoresto.fr/resto/elfie", 
        "lon": 4.85429369999997, 
        "international_phone_number": "+33478426813"
    }, 
    {
        "website": "", 
        "national_phone_number": "06 25 81 12 13", 
        "tags": [
            "vegan", 
            "gluten-free"
        ], 
        "phone": "06 25 81 12 13", 
        "address": "68100 Mulhouse", 
        "lat": 47.7413496, 
        "id": 289, 
        "name": "FoodLinK", 
        "absolute_url": "http://vegoresto.fr/resto/foodlink", 
        "lon": 7.34568569999999, 
        "international_phone_number": "+33625811213"
    }, 
    {
        "website": "www.restaurantganesha.com", 
        "national_phone_number": "03 88 35 39 14", 
        "tags": [], 
        "phone": "03 88 35 39 14", 
        "address": "46, rue de Zurich<br />\r\n67000 Strasbourg", 
        "lat": 48.5794446, 
        "id": 4030, 
        "name": "Ganesha", 
        "absolute_url": "http://vegoresto.fr/resto/ganesha", 
        "lon": 7.75814309999998, 
        "international_phone_number": "+33388353914"
    }, 
    {
        "website": "www.gentlegourmetcafe.com/", 
        "national_phone_number": "01 43 43 48 49", 
        "tags": [
            "vegan", 
            "gluten-free"
        ], 
        "phone": "01 43 43 48 49", 
        "address": "24 Boulevard de la Bastille<br />\r\n75012 Paris", 
        "lat": 48.849026, 
        "id": 188, 
        "name": "Gentle Gourmet Caf\u00e9", 
        "absolute_url": "http://vegoresto.fr/resto/gentle-gourmet-cafe", 
        "lon": 2.36826510000003, 
        "international_phone_number": "+33143434849"
    }, 
    {
        "website": "", 
        "national_phone_number": "06 07 02 04 82", 
        "tags": [
            "vegetarian"
        ], 
        "phone": "06 07 02 04 82", 
        "address": "Boulevard des Vagues<br />\r\n13000 Marseille", 
        "lat": 43.2523568, 
        "id": 4689, 
        "name": "Good truck", 
        "absolute_url": "http://vegoresto.fr/resto/good-truck", 
        "lon": 5.37787159999993, 
        "international_phone_number": "+33607020482"
    }, 
    {
        "website": "", 
        "national_phone_number": "02 503 13 57", 
        "tags": [], 
        "phone": "025031357", 
        "address": "Rue Van Artevelde 14<br />\r\n1000 Bruxelles", 
        "lat": 50.8484557, 
        "id": 4651, 
        "name": "Gourmet d\u2019Asie", 
        "absolute_url": "http://vegoresto.fr/resto/gourmet-dasie", 
        "lon": 4.34734839999999, 
        "international_phone_number": "+3225031357"
    }, 
    {
        "website": "legrandappetit.fr/index.php", 
        "national_phone_number": "01 40 27 04 95", 
        "tags": [
            "vegan"
        ], 
        "phone": "01 40 27 04 95", 
        "address": "9 rue de la Cerisaie<br />\r\n75004 Paris", 
        "lat": 48.8516549, 
        "id": 211, 
        "name": "Grand App\u00e9tit", 
        "absolute_url": "http://vegoresto.fr/resto/grand-appetit", 
        "lon": 2.36640599999998, 
        "international_phone_number": "+33140270495"
    }, 
    {
        "website": "", 
        "national_phone_number": "05 35 38 41 18", 
        "tags": [
            "vegan", 
            "gluten-free"
        ], 
        "phone": "05 35 38 41 18", 
        "address": "62 - 64 rue du H\u00e2<br />\r\n33000 Bordeaux", 
        "lat": 44.8359895, 
        "id": 267, 
        "name": "Greedy", 
        "absolute_url": "http://vegoresto.fr/resto/greedy", 
        "lon": -0.578328699999929, 
        "international_phone_number": "+33535384118"
    }, 
    {
        "website": "restaurant-vegetarien-vegan-normandie.fr/", 
        "national_phone_number": "02 31 93 38 52", 
        "tags": [
            "vegetarian"
        ], 
        "phone": "02 31 93 38 52", 
        "address": "15 rue de bras<br />\r\n14000 Caen", 
        "lat": 49.1823554, 
        "id": 251, 
        "name": "Greedy Guts", 
        "absolute_url": "http://vegoresto.fr/resto/greedy-guts", 
        "lon": -0.364830500000039, 
        "international_phone_number": "+33231933852"
    }, 
    {
        "website": "www.greendeliss.fr/", 
        "national_phone_number": "09 86 23 04 58", 
        "tags": [], 
        "phone": "09 86 23 04 58", 
        "address": "11 avenue du Mar\u00e9chal Foch<br />\r\n13004 Marseille", 
        "lat": 43.3020502, 
        "id": 213, 
        "name": "GreenDeliss", 
        "absolute_url": "http://vegoresto.fr/resto/greendeliss", 
        "lon": 5.39785280000001, 
        "international_phone_number": "+33986230458"
    }, 
    {
        "website": "grrrfood.blogspot.fr/", 
        "national_phone_number": "07 83 13 11 67", 
        "tags": [
            "vegan"
        ], 
        "phone": "07 83 13 11 67", 
        "address": "Halles de S\u00e9rignan<br />\r\nBoulevard Voltaire<br />\r\n34410 S\u00e9rignan", 
        "lat": 43.2821456, 
        "id": 200, 
        "name": "GRRRfood", 
        "absolute_url": "http://vegoresto.fr/resto/grrrfood", 
        "lon": 3.27912960000003, 
        "international_phone_number": "+33783131167"
    }, 
    {
        "website": "http://www.guantanamera.fr/", 
        "national_phone_number": "09 54 78 48 81", 
        "tags": [], 
        "phone": "09 54 78 48 81", 
        "address": "47 rue Pajol<br />\r\n75018 paris", 
        "lat": 48.8890181, 
        "id": 4002, 
        "name": "Guantanamera", 
        "absolute_url": "http://vegoresto.fr/resto/guantanamera", 
        "lon": 2.36231969999994, 
        "international_phone_number": "+33954784881"
    }, 
    {
        "website": "www.hankburger.com/", 
        "national_phone_number": "09 72 44 03 99", 
        "tags": [
            "vegan", 
            "gluten-free"
        ], 
        "phone": "09 72 44 03 99", 
        "address": "55 rue des Archives<br />\r\n75003 Paris", 
        "lat": 48.8615751, 
        "id": 258, 
        "name": "Hank", 
        "absolute_url": "http://vegoresto.fr/resto/hank", 
        "lon": 2.35829339999998, 
        "international_phone_number": "+33972440399"
    }, 
    {
        "website": "", 
        "national_phone_number": "09 84 25 44 71", 
        "tags": [], 
        "phone": "09 84 25 44 71", 
        "address": "17 rue Beno\u00eet Bunico<br />\r\n06300 Nice", 
        "lat": 43.6974435, 
        "id": 4055, 
        "name": "Himalaya", 
        "absolute_url": "http://vegoresto.fr/resto/himalaya", 
        "lon": 7.27690370000005, 
        "international_phone_number": "+33984254471"
    }, 
    {
        "website": "http://www.indeetvous.com/", 
        "national_phone_number": "02 40 48 73 91", 
        "tags": [], 
        "phone": "02 40 48 73 91", 
        "address": "3, All\u00e9e d&#039;Erdre<br />\r\n44000 Nantes", 
        "lat": 47.2192801, 
        "id": 4708, 
        "name": "Inde et Vous", 
        "absolute_url": "http://vegoresto.fr/resto/inde-et-vous", 
        "lon": -1.55568670000002, 
        "international_phone_number": "+33240487391"
    }, 
    {
        "website": "http://www.indianhouse.fr/", 
        "national_phone_number": "03 20 31 38 43", 
        "tags": [], 
        "phone": "03 20 31 38 43", 
        "address": "23 rue Royale<br />\r\n59800 Lille", 
        "lat": 50.6394572, 
        "id": 4012, 
        "name": "Indian House", 
        "absolute_url": "http://vegoresto.fr/resto/indian-house", 
        "lon": 3.05807589999995, 
        "international_phone_number": "+33320313843"
    }, 
    {
        "website": "http://www.invitafreshfood.com/", 
        "national_phone_number": "05 61 57 79 30", 
        "tags": [
            "vegan", 
            "gluten-free"
        ], 
        "phone": "05 61 57 79 30", 
        "address": "24 Rue des Paradoux<br />\r\n31000 Toulouse", 
        "lat": 43.5990325, 
        "id": 4695, 
        "name": "Invita Fresh Food", 
        "absolute_url": "http://vegoresto.fr/resto/invita-fresh-food", 
        "lon": 1.44282569999996, 
        "international_phone_number": "+33561577930"
    }, 
    {
        "website": "www.ivlo.paris", 
        "national_phone_number": "01 75 42 94 73", 
        "tags": [
            "vegetarian"
        ], 
        "phone": "01 75 42 94 73", 
        "address": "10 rue Lucien Sampaix <br />\r\n75010 Paris", 
        "lat": 48.8712052, 
        "id": 4683, 
        "name": "IVLO", 
        "absolute_url": "http://vegoresto.fr/resto/ivlo", 
        "lon": 2.36018860000001, 
        "international_phone_number": "+33175429473"
    }, 
    {
        "website": "http://www.restaurant-izba.com/Accueil.html", 
        "national_phone_number": "05 53 09 37 51", 
        "tags": [
            "vegetarian"
        ], 
        "phone": "05 53 09 37 51", 
        "address": "11 Cours F\u00e9nelon<br />\r\n24000 P\u00e9rigueux", 
        "lat": 45.182301, 
        "id": 285, 
        "name": "Izba", 
        "absolute_url": "http://vegoresto.fr/resto/izba", 
        "lon": 0.719946199999981, 
        "international_phone_number": "+33553093751"
    }, 
    {
        "website": "http://www.jinjiresto.com/", 
        "national_phone_number": "05 61 15 71 00", 
        "tags": [], 
        "phone": "05 61 15 71 00", 
        "address": "23 rue des Mines<br />\r\n31700 Blagnac", 
        "lat": 43.6362749, 
        "id": 4036, 
        "name": "Jin Ji Table Cor\u00e9enne", 
        "absolute_url": "http://vegoresto.fr/resto/jin-ji-table-coreenne", 
        "lon": 1.39155909999999, 
        "international_phone_number": "+33561157100"
    }, 
    {
        "website": "http://www.karmafood.fr/", 
        "national_phone_number": "07 55 35 12 41", 
        "tags": [
            "vegetarian", 
            "gluten-free"
        ], 
        "phone": "07 55 35 12 41", 
        "address": "43 bis boulevard Stalingrad<br />\r\n06300 Nice", 
        "lat": 43.6960686, 
        "id": 4688, 
        "name": "Karma Food", 
        "absolute_url": "http://vegoresto.fr/resto/karma-food", 
        "lon": 7.28696820000005, 
        "international_phone_number": "+33755351241"
    }, 
    {
        "website": "http://www.restaurant-orleans-kogi.fr/restaurant-orleans", 
        "national_phone_number": "09 50 00 04 48", 
        "tags": [], 
        "phone": "09 50 00 04 48", 
        "address": "36 Rue de l&#039;Empereur<br />\r\n45000 Orl\u00e9ans", 
        "lat": 47.8997588, 
        "id": 283, 
        "name": "Kogi", 
        "absolute_url": "http://vegoresto.fr/resto/kogi", 
        "lon": 1.90790790000005, 
        "international_phone_number": "+33950000448"
    }, 
    {
        "website": "restaurant-krishna.e-monsite.com/", 
        "national_phone_number": "05 55 33 19 76", 
        "tags": [], 
        "phone": "05 55 33 19 76", 
        "address": "13 Rue Delescluze<br />\r\n87000 Limoges", 
        "lat": 45.8274053, 
        "id": 169, 
        "name": "Krishna", 
        "absolute_url": "http://vegoresto.fr/resto/krishna", 
        "lon": 1.2616544, 
        "international_phone_number": "+33555331976"
    }, 
    {
        "website": "", 
        "national_phone_number": "04 91 92 74 78", 
        "tags": [], 
        "phone": "04 91 92 74 78", 
        "address": "8 place Notre-Dame du Mont<br />\r\n13006 Marseille", 
        "lat": 43.2920007, 
        "id": 287, 
        "name": "La Baie du Dragon", 
        "absolute_url": "http://vegoresto.fr/resto/la-baie-du-dragon", 
        "lon": 5.38358949999997, 
        "international_phone_number": "+33491927478"
    }, 
    {
        "website": "labellevertebio.com", 
        "national_phone_number": "05 61 62 73 42", 
        "tags": [
            "gluten-free"
        ], 
        "phone": "05 61 62 73 42", 
        "address": "50 rue d&#039;Aubuisson<br />\r\n31000 Toulouse", 
        "lat": 43.6029589, 
        "id": 177, 
        "name": "La Belle Verte", 
        "absolute_url": "http://vegoresto.fr/resto/la-belle-verte", 
        "lon": 1.4538, 
        "international_phone_number": "+33561627342"
    }, 
    {
        "website": "www.labergamothee.fr/", 
        "national_phone_number": "06 43 97 77 70", 
        "tags": [
            "vegetarian", 
            "gluten-free"
        ], 
        "phone": "06 43 97 77 70", 
        "address": "1 place du Mazet<br />\r\n63000 Clermont-Ferrand", 
        "lat": 45.7794131, 
        "id": 192, 
        "name": "La BerGamoTh\u00e9e", 
        "absolute_url": "http://vegoresto.fr/resto/la-bergamothee", 
        "lon": 3.08442479999997, 
        "international_phone_number": "+33643977770"
    }, 
    {
        "website": "http://www.burger-mobile.com/", 
        "national_phone_number": "07 86 72 05 35", 
        "tags": [], 
        "phone": "07 86 72 05 35", 
        "address": "56000 Vannes", 
        "lat": 47.6617064, 
        "id": 4679, 
        "name": "La Burger Mobile", 
        "absolute_url": "http://vegoresto.fr/resto/la-burger-mobile", 
        "lon": -2.75746159999994, 
        "international_phone_number": "+33786720535"
    }, 
    {
        "website": "http://www.lacagetteamalek.com/restaurant.html", 
        "national_phone_number": "06 95 83 73 10", 
        "tags": [], 
        "phone": "06 95 83 73 10", 
        "address": "14 rue des Pierres Plant\u00e9es<br />\r\n69001 Lyon", 
        "lat": 45.7734447, 
        "id": 4690, 
        "name": "La Cagette", 
        "absolute_url": "http://vegoresto.fr/resto/la-cagette", 
        "lon": 4.83181300000001, 
        "international_phone_number": "+33695837310"
    }, 
    {
        "website": "", 
        "national_phone_number": "06 62 81 56 74", 
        "tags": [
            "gluten-free"
        ], 
        "phone": "06 62 81 56 74", 
        "address": "192 rue Eau de Robec<br />\r\n76000 Rouen", 
        "lat": 49.4415723, 
        "id": 4703, 
        "name": "La Cantine", 
        "absolute_url": "http://vegoresto.fr/resto/la-cantine", 
        "lon": 1.09953139999993, 
        "international_phone_number": "+33662815674"
    }, 
    {
        "website": "www.lacaravegan.eu", 
        "national_phone_number": "06 01 71 06 30", 
        "tags": [
            "vegan"
        ], 
        "phone": "06 01 71 06 30", 
        "address": "87 route de Monlon<br />\r\nCamping Du Gaoucher<br />\r\n40560 Vielle Saint Girons", 
        "lat": 43.9037325, 
        "id": 202, 
        "name": "La CaraVegan", 
        "absolute_url": "http://vegoresto.fr/resto/la-caravegan", 
        "lon": -1.29185670000004, 
        "international_phone_number": "+33601710630"
    }, 
    {
        "website": "", 
        "national_phone_number": "04 22 09 58 55", 
        "tags": [], 
        "phone": "04 22 09 58 55", 
        "address": "52 rue Gioffredo<br />\r\n06000 Nice", 
        "lat": 43.69897, 
        "id": 4666, 
        "name": "La Casa Della Piadina", 
        "absolute_url": "http://vegoresto.fr/resto/la-casa-della-piadina", 
        "lon": 7.27210779999996, 
        "international_phone_number": "+33422095855"
    }, 
    {
        "website": "https://www.relaischateaux.com/fr/france/restaurant/la-chapelle-saint-martin-haute-vienne-nieul", 
        "national_phone_number": "05 55 75 80 17", 
        "tags": [], 
        "phone": "05 55 75 80 17", 
        "address": "33 Saint Martin du Fault<br />\r\n87510 Nieul", 
        "lat": 45.892469, 
        "id": 4684, 
        "name": "La Chapelle Saint-Martin", 
        "absolute_url": "http://vegoresto.fr/resto/chapelle-saint-martin", 
        "lon": 1.1787296, 
        "international_phone_number": "+33555758017"
    }, 
    {
        "website": "restolacoree.com", 
        "national_phone_number": "09 82 27 82 15", 
        "tags": [], 
        "phone": "09 82 27 82 15", 
        "address": "40 avenue Jean Jaur\u00e8s<br />\r\n69007 Lyon", 
        "lat": 45.7509798, 
        "id": 208, 
        "name": "La Cor\u00e9e", 
        "absolute_url": "http://vegoresto.fr/resto/la-coree", 
        "lon": 4.84502470000007, 
        "international_phone_number": "+33982278215"
    }, 
    {
        "website": "www.lacuisinedejohanna.com/", 
        "national_phone_number": "05 56 35 81 03", 
        "tags": [
            "vegetarian"
        ], 
        "phone": "05 56 35 81 03", 
        "address": "44 Cours Anatole France<br />\r\n33000 Bordeaux", 
        "lat": 44.8355503, 
        "id": 265, 
        "name": "La cuisine de Johanna", 
        "absolute_url": "http://vegoresto.fr/resto/la-cuisine-de-johanna", 
        "lon": -0.583633100000043, 
        "international_phone_number": "+33556358103"
    }, 
    {
        "website": "", 
        "national_phone_number": "06 52 69 62 65", 
        "tags": [
            "vegetarian", 
            "gluten-free"
        ], 
        "phone": "06 52 69 62 65", 
        "address": "84400 Apt", 
        "lat": 43.8728272, 
        "id": 4046, 
        "name": "La Cuisine Mobile", 
        "absolute_url": "http://vegoresto.fr/resto/la-cuisine-mobile", 
        "lon": 5.4149003, 
        "international_phone_number": "+33652696265"
    }, 
    {
        "website": "http://www.logislacure.fr/", 
        "national_phone_number": "05 17 20 45 51", 
        "tags": [
            "vegetarian"
        ], 
        "phone": "05 17 20 45 51", 
        "address": "1 la Cure du Maine Charles<br />\r\n16120 Birac", 
        "lat": 45.562993, 
        "id": 4691, 
        "name": "La Cure du Maine Charles", 
        "absolute_url": "http://vegoresto.fr/resto/la-cure-du-maine-charles", 
        "lon": -0.0600590000000238, 
        "international_phone_number": "+33517204551"
    }, 
    {
        "website": "http://restomillepoetes.unblog.fr/", 
        "national_phone_number": "04 68 65 15 87", 
        "tags": [
            "gluten-free"
        ], 
        "phone": "04 68 65 15 87", 
        "address": "2 b Avenue Elie Sermet<br />\r\n11100 Narbonne", 
        "lat": 43.1871086, 
        "id": 4588, 
        "name": "La Flamb\u00e9e des Mille Po\u00e8tes", 
        "absolute_url": "http://vegoresto.fr/resto/la-flambee-des-mille-poetes", 
        "lon": 3.0088753, 
        "international_phone_number": "+33468651587"
    }, 
    {
        "website": "lafoliedoucebar.free.fr/accueil.html", 
        "national_phone_number": "06 77 45 80 30", 
        "tags": [
            "vegetarian", 
            "gluten-free"
        ], 
        "phone": "06 77 45 80 30", 
        "address": "111 Boulevard de M\u00e9nilmontant<br />\r\n75011 Paris", 
        "lat": 48.8652807, 
        "id": 186, 
        "name": "La Folie Douce", 
        "absolute_url": "http://vegoresto.fr/resto/la-folie-douce", 
        "lon": 2.38417809999999, 
        "international_phone_number": "+33677458030"
    }, 
    {
        "website": "http://www.lagarnasette.net/", 
        "national_phone_number": "04 71 57 40 96", 
        "tags": [
            "vegetarian", 
            "gluten-free"
        ], 
        "phone": "04 71 57 40 96", 
        "address": "Chiriac<br />\r\n43800 Rosi\u00e8res", 
        "lat": 45.136049, 
        "id": 4682, 
        "name": "La Garnasette", 
        "absolute_url": "http://vegoresto.fr/resto/la-garnasette", 
        "lon": 3.98073899999997, 
        "international_phone_number": "+33471574096"
    }, 
    {
        "website": "http://www.maisonduvert.com/index_f.htm", 
        "national_phone_number": "02 33 36 95 84", 
        "tags": [
            "vegetarian"
        ], 
        "phone": "02 33 36 95 84", 
        "address": "Le bourg<br />\r\n61120 Ticheville", 
        "lat": 48.9093063, 
        "id": 281, 
        "name": "La Maison du Vert", 
        "absolute_url": "http://vegoresto.fr/resto/la-maison-du-vert", 
        "lon": 0.26325810000003, 
        "international_phone_number": "+33233369584"
    }, 
    {
        "website": "http://www.lamaisonpapillons.fr/", 
        "national_phone_number": "06 20 46 80 05", 
        "tags": [
            "vegetarian", 
            "gluten-free"
        ], 
        "phone": "06 20 46 80 05", 
        "address": "Hameau de Monteil<br />\r\n30630 Montclus", 
        "lat": 44.282461, 
        "id": 4692, 
        "name": "La Maison Papillons", 
        "absolute_url": "http://vegoresto.fr/resto/la-maison-papillons", 
        "lon": 4.41206599999998, 
        "international_phone_number": "+33620468005"
    }, 
    {
        "website": "www.lamaisonthai.fr/", 
        "national_phone_number": "04 78 24 85 45", 
        "tags": [], 
        "phone": "04 78 24 85 45", 
        "address": "85 rue Mass\u00e9na<br />\r\n69006 Lyon", 
        "lat": 45.7665634, 
        "id": 167, 
        "name": "La Maison Tha\u00ef", 
        "absolute_url": "http://vegoresto.fr/resto/la-maison-thai", 
        "lon": 4.8549878, 
        "international_phone_number": "+33478248545"
    }, 
    {
        "website": "", 
        "national_phone_number": "03 89 56 08 47", 
        "tags": [
            "vegetarian", 
            "gluten-free"
        ], 
        "phone": "03 89 56 08 47", 
        "address": "26 rue de la Justice<br />\r\n68100 Mulhouse", 
        "lat": 47.7481484, 
        "id": 253, 
        "name": "La Parenth\u00e8se", 
        "absolute_url": "http://vegoresto.fr/resto/la-parenthese", 
        "lon": 7.34109899999999, 
        "international_phone_number": "+33389560847"
    }, 
    {
        "website": "", 
        "national_phone_number": "09 50 66 20 64", 
        "tags": [
            "gluten-free"
        ], 
        "phone": "09 50 66 20 64", 
        "address": "33 rue du jeu des enfants<br />\r\n67000 Strasbourg", 
        "lat": 48.5837877, 
        "id": 209, 
        "name": "La Pause Quinoa", 
        "absolute_url": "http://vegoresto.fr/resto/la-pause-quinoa", 
        "lon": 7.74275990000001, 
        "international_phone_number": "+33950662064"
    }, 
    {
        "website": "", 
        "national_phone_number": "06 62 43 81 25", 
        "tags": [
            "vegan", 
            "gluten-free"
        ], 
        "phone": "06 62 43 81 25", 
        "address": "Sud de l&#039;Ard\u00e8che.", 
        "lat": 44.5981671, 
        "id": 159, 
        "name": "La Pause Verte", 
        "absolute_url": "http://vegoresto.fr/resto/la-pause-verte", 
        "lon": 4.37707039999998, 
        "international_phone_number": "+33662438125"
    }, 
    {
        "website": "http://la-poterne-brantes.jimdo.com/", 
        "national_phone_number": "04 75 28 29 13", 
        "tags": [
            "vegetarian", 
            "gluten-free"
        ], 
        "phone": "04 75 28 29 13", 
        "address": "Le village<br />\r\n84390 Brantes", 
        "lat": 44.192628, 
        "id": 4704, 
        "name": "La Poterne", 
        "absolute_url": "http://vegoresto.fr/resto/la-poterne", 
        "lon": 5.33334400000001, 
        "international_phone_number": "+33475282913"
    }, 
    {
        "website": "www.laprovincialepizzas.fr/", 
        "national_phone_number": "04 93 09 35 93", 
        "tags": [], 
        "phone": "04 93 09 35 93", 
        "address": "Route de Draguignan<br />\r\nR\u00e9s. le grand chemin<br />\r\n06530 Le Tignet", 
        "lat": 43.639995, 
        "id": 189, 
        "name": "La Provinciale", 
        "absolute_url": "http://vegoresto.fr/resto/la-provinciale", 
        "lon": 6.84615299999996, 
        "international_phone_number": "+33493093593"
    }, 
    {
        "website": "", 
        "national_phone_number": "06 95 30 00 66", 
        "tags": [
            "vegan", 
            "gluten-free"
        ], 
        "phone": "06 95 30 00 66", 
        "address": "5 rue du th\u00e9\u00e2tre<br />\r\n66000 Perpignan", 
        "lat": 42.6983003, 
        "id": 259, 
        "name": "La r\u00e9volution verte", 
        "absolute_url": "http://vegoresto.fr/resto/la-revolution-verte", 
        "lon": 2.89624330000004, 
        "international_phone_number": "+33695300066"
    }, 
    {
        "website": "laromana-hyeres.com/", 
        "national_phone_number": "04 94 57 45 07", 
        "tags": [
            "gluten-free"
        ], 
        "phone": "04 94 57 45 07", 
        "address": "11 avenue Pierre Renaudel<br />\r\n83400 Hy\u00e8res", 
        "lat": 43.109366, 
        "id": 222, 
        "name": "La Romana", 
        "absolute_url": "http://vegoresto.fr/resto/la-romana", 
        "lon": 6.1262097, 
        "international_phone_number": "+33494574507"
    }, 
    {
        "website": "http://www.la-saigonnaise.com/", 
        "national_phone_number": "02 97 68 49 80", 
        "tags": [], 
        "phone": "02 97 68 49 80", 
        "address": "2 place de la Madeleine<br />\r\n56000 Vannes", 
        "lat": 47.6591887, 
        "id": 4027, 
        "name": "La Saigonnaise", 
        "absolute_url": "http://vegoresto.fr/resto/la-saigonnaise", 
        "lon": -2.77148629999999, 
        "international_phone_number": "+33297684980"
    }, 
    {
        "website": "", 
        "national_phone_number": "09 86 27 34 98", 
        "tags": [], 
        "phone": "09 86 27 34 98", 
        "address": "187, av. Gambetta<br />\r\n16000 Angoul\u00eame", 
        "lat": 45.6500903, 
        "id": 4671, 
        "name": "La Soupape", 
        "absolute_url": "http://vegoresto.fr/resto/la-soupape", 
        "lon": 0.160888500000056, 
        "international_phone_number": "+33986273498"
    }, 
    {
        "website": "www.latabledesroy.fr/", 
        "national_phone_number": "02 40 20 33 86", 
        "tags": [
            "gluten-free"
        ], 
        "phone": "02 40 20 33 86", 
        "address": "4 rue des Trois Croissants<br />\r\n44000 Nantes", 
        "lat": 47.2167998, 
        "id": 164, 
        "name": "La Table des Roy", 
        "absolute_url": "http://vegoresto.fr/resto/la-table-des-roy", 
        "lon": -1.55486159999998, 
        "international_phone_number": "+33240203386"
    }, 
    {
        "website": "", 
        "national_phone_number": "03 83 32 17 64", 
        "tags": [
            "vegetarian"
        ], 
        "phone": "03 83 32 17 64", 
        "address": "27 rue des soeurs Macaron<br />\r\n54000 Nancy", 
        "lat": 48.6885731, 
        "id": 243, 
        "name": "La table du Petit Chaouen", 
        "absolute_url": "http://vegoresto.fr/resto/la-table-du-petit-chaouen", 
        "lon": 6.18490159999999, 
        "international_phone_number": "+33383321764"
    }, 
    {
        "website": "www.tetedechou.fr/", 
        "national_phone_number": "03 89 46 22 17", 
        "tags": [
            "vegetarian"
        ], 
        "phone": "03 89 46 22 17", 
        "address": "14 rue des 3 rois<br />\r\n68100 Mulhouse", 
        "lat": 47.7443154, 
        "id": 233, 
        "name": "La t\u00eate de chou", 
        "absolute_url": "http://vegoresto.fr/resto/la-tete-de-chou", 
        "lon": 7.33427800000004, 
        "international_phone_number": "+33389462217"
    }, 
    {
        "website": "", 
        "national_phone_number": "06 65 61 79 20", 
        "tags": [
            "vegan", 
            "gluten-free"
        ], 
        "phone": "06 65 61 79 20", 
        "address": "Coulaine<br />\r\n49170 Savenni\u00e8res", 
        "lat": 47.4269346, 
        "id": 191, 
        "name": "La Vegan Mobile", 
        "absolute_url": "http://vegoresto.fr/resto/la-vegan-mobile", 
        "lon": -0.757978800000046, 
        "international_phone_number": "+33665617920"
    }, 
    {
        "website": "", 
        "national_phone_number": "06 15 32 38 85", 
        "tags": [
            "gluten-free"
        ], 
        "phone": "06 15 32 38 85", 
        "address": "41  rue Jean Jaur\u00e8s<br />\r\n42300 Roanne", 
        "lat": 46.0343753, 
        "id": 4051, 
        "name": "La Vie est Belle", 
        "absolute_url": "http://vegoresto.fr/resto/la-vie-est-belle", 
        "lon": 4.0744029, 
        "international_phone_number": "+33615323885"
    }, 
    {
        "website": "", 
        "national_phone_number": null, 
        "tags": [
            "vegan"
        ], 
        "phone": "\u00e0 venir", 
        "address": "30 boulevard Bonne Nouvelle<br />\r\n75010 Paris", 
        "lat": 48.8707923, 
        "id": 286, 
        "name": "Las Vegans", 
        "absolute_url": "http://vegoresto.fr/resto/las-vegans", 
        "lon": 2.34990130000006, 
        "international_phone_number": null
    }, 
    {
        "website": "http://www.le27.com/Home.html", 
        "national_phone_number": "05 55 32 27 27", 
        "tags": [], 
        "phone": "05 55 32 27 27", 
        "address": "27 rue Haute-Vienne<br />\r\n87000 Limoges", 
        "lat": 45.8285107, 
        "id": 4685, 
        "name": "Le 27 restaurant", 
        "absolute_url": "http://vegoresto.fr/resto/le-27-restaurant", 
        "lon": 1.25917470000002, 
        "international_phone_number": "+33555322727"
    }, 
    {
        "website": "http://www.balagan-marseille.fr/", 
        "national_phone_number": "04 91 71 72 13", 
        "tags": [
            "vegetarian", 
            "gluten-free"
        ], 
        "phone": "04 91 71 72 13", 
        "address": "99 rue du Rouet<br />\r\n13008 Marseille", 
        "lat": 43.2805252, 
        "id": 4693, 
        "name": "Le Balagan", 
        "absolute_url": "http://vegoresto.fr/resto/le-balagan", 
        "lon": 5.38995320000004, 
        "international_phone_number": "+33491717213"
    }, 
    {
        "website": "http://le-bistrot-de-l-ile.blogspot.fr/", 
        "national_phone_number": "02 40 47 92 35", 
        "tags": [
            "vegetarian", 
            "gluten-free"
        ], 
        "phone": "02 40 47 92 35", 
        "address": "17 rue de la Tour d&#039;Auvergne<br />\r\n44200 Nantes", 
        "lat": 47.2065125, 
        "id": 239, 
        "name": "Le Bistrot de l\u2019Ile", 
        "absolute_url": "http://vegoresto.fr/resto/le-bistrot-de-lile", 
        "lon": -1.55484939999997, 
        "international_phone_number": "+33240479235"
    }, 
    {
        "website": "http://www.capoul.com/", 
        "national_phone_number": "05 61 21 08 27", 
        "tags": [], 
        "phone": "05 61 21 08 27", 
        "address": "13 place Wilson<br />\r\n31000 Toulouse", 
        "lat": 43.6051529, 
        "id": 4665, 
        "name": "Le Capoul", 
        "absolute_url": "http://vegoresto.fr/resto/le-capoul", 
        "lon": 1.44682409999996, 
        "international_phone_number": "+33561210827"
    }, 
    {
        "website": "www.lecedre-restaurant.fr/", 
        "national_phone_number": "02 40 20 15 61", 
        "tags": [], 
        "phone": "02 40 20 15 61", 
        "address": "20 rue Kervegan<br />\r\n44000 Nantes", 
        "lat": 47.2130494, 
        "id": 227, 
        "name": "Le C\u00e8dre", 
        "absolute_url": "http://vegoresto.fr/resto/le-cedre", 
        "lon": -1.55558270000006, 
        "international_phone_number": "+33240201561"
    }, 
    {
        "website": "", 
        "national_phone_number": "04 89 29 34 72", 
        "tags": [], 
        "phone": "04 89 29 34 72", 
        "address": "2271 corniche Georges Pompidou<br />\r\n83500 La Seyne sur Mer", 
        "lat": 43.0807073, 
        "id": 4032, 
        "name": "Le Cedrus", 
        "absolute_url": "http://vegoresto.fr/resto/le-cedrus", 
        "lon": 5.89401989999999, 
        "international_phone_number": "+33489293472"
    }, 
    {
        "website": "", 
        "national_phone_number": "02 97 42 56 74", 
        "tags": [], 
        "phone": "02 97 42 56 74", 
        "address": "17 place du G\u00e9n\u00e9ral de Gaulle<br />\r\n56000 Vannes", 
        "lat": 47.6584591, 
        "id": 4655, 
        "name": "Le coq \u00e0 l\u2019\u00e2ne", 
        "absolute_url": "http://vegoresto.fr/resto/le-coq-a-lane", 
        "lon": -2.75369839999996, 
        "international_phone_number": "+33297425674"
    }, 
    {
        "website": "", 
        "national_phone_number": "09 52 38 80 54", 
        "tags": [
            "gluten-free"
        ], 
        "phone": "09 52 38 80 54", 
        "address": "15 rue Saint Fran\u00e7ois<br />\r\n33000 Bordeaux", 
        "lat": 44.8344656, 
        "id": 4056, 
        "name": "Le Cosmopolis", 
        "absolute_url": "http://vegoresto.fr/resto/le-cosmopolis", 
        "lon": -0.567678300000011, 
        "international_phone_number": "+33952388054"
    }, 
    {
        "website": "", 
        "national_phone_number": "02 99 36 84 63", 
        "tags": [], 
        "phone": "02 99 36 84 63", 
        "address": "36 Rue Saint-Melaine<br />\r\n35000 Rennes", 
        "lat": 48.1147771, 
        "id": 4686, 
        "name": "Le Dolma", 
        "absolute_url": "http://vegoresto.fr/resto/le-dolma", 
        "lon": -1.67599510000002, 
        "international_phone_number": "+33299368463"
    }, 
    {
        "website": "http://www.domainedelareynaude.com/fr/", 
        "national_phone_number": "04 90 59 30 24", 
        "tags": [], 
        "phone": "04 90 59 30 24", 
        "address": "Les Sonnaillets<br />\r\n13121 Aurons", 
        "lat": 43.664817, 
        "id": 4642, 
        "name": "Le Domaine de la Reynaude", 
        "absolute_url": "http://vegoresto.fr/resto/le-domaine-de-la-reynaude", 
        "lon": 5.1555419, 
        "international_phone_number": "+33490593024"
    }, 
    {
        "website": "http://www.legirouet.com/", 
        "national_phone_number": "02 38 81 07 14", 
        "tags": [], 
        "phone": "02 38 81 07 14", 
        "address": "14 Quai du Ch\u00e2telet<br />\r\n45000 Orl\u00e9ans", 
        "lat": 47.8981173, 
        "id": 4643, 
        "name": "Le Girouet", 
        "absolute_url": "http://vegoresto.fr/resto/le-girouet", 
        "lon": 1.91202780000003, 
        "international_phone_number": "+33238810714"
    }, 
    {
        "website": "http://www.legrenierdenotredame.fr/", 
        "national_phone_number": "01 43 29 98 29", 
        "tags": [
            "vegetarian"
        ], 
        "phone": "01 43 29 98 29", 
        "address": "18 rue de la B\u00fbcherie<br />\r\n75005 Paris", 
        "lat": 48.8519396, 
        "id": 165, 
        "name": "Le Grenier de Notre-Dame", 
        "absolute_url": "http://vegoresto.fr/resto/le-grenier-de-notre-dame", 
        "lon": 2.34846470000002, 
        "international_phone_number": "+33143299829"
    }, 
    {
        "website": "leharicotvivant.com", 
        "national_phone_number": "06 03 62 08 40", 
        "tags": [
            "vegetarian", 
            "gluten-free"
        ], 
        "phone": "06 03 62 08 40", 
        "address": "15 avenue du Pinsan<br />\r\n33370 Artigues", 
        "lat": 44.8597164, 
        "id": 242, 
        "name": "Le haricot vivant", 
        "absolute_url": "http://vegoresto.fr/resto/le-haricot-vivant", 
        "lon": -0.489654599999994, 
        "international_phone_number": "+33603620840"
    }, 
    {
        "website": "", 
        "national_phone_number": "02 99 54 07 38", 
        "tags": [], 
        "phone": "02 99 54 07 38", 
        "address": "29 Cours John Fitzgerald Kennedy<br />\r\n35000 Rennes", 
        "lat": 48.1214174, 
        "id": 4020, 
        "name": "L\u00ea Lai", 
        "absolute_url": "http://vegoresto.fr/resto/le-lai", 
        "lon": -1.70897749999995, 
        "international_phone_number": "+33299540738"
    }, 
    {
        "website": "http://www.restaurant-le-lift.com/la_carte.php", 
        "national_phone_number": "02 38 62 40 00", 
        "tags": [], 
        "phone": "02 38 62 40 00", 
        "address": "5 rue de la Poterne<br />\r\n45000 Orl\u00e9ans", 
        "lat": 47.8986733, 
        "id": 4644, 
        "name": "Le Lift", 
        "absolute_url": "http://vegoresto.fr/resto/le-lift", 
        "lon": 1.90930660000004, 
        "international_phone_number": "+33238624000"
    }, 
    {
        "website": "", 
        "national_phone_number": "03 62 92 91 41", 
        "tags": [
            "vegan"
        ], 
        "phone": "03 62 92 91 41", 
        "address": "71 rue Jeanne d&#039;Arc<br />\r\n59000 Lille", 
        "lat": 50.624249, 
        "id": 4647, 
        "name": "Le Liquium", 
        "absolute_url": "http://vegoresto.fr/resto/le-liquim", 
        "lon": 3.06441819999998, 
        "international_phone_number": "+33362929141"
    }, 
    {
        "website": "www.lemachonfin.fr/", 
        "national_phone_number": "04 74 66 28 06", 
        "tags": [], 
        "phone": "04 74 66 28 06", 
        "address": "52 rue de la Poste<br />\r\n69220 Belleville-sur-Sa\u00f4ne", 
        "lat": 46.1105745, 
        "id": 207, 
        "name": "Le M\u00e2chon fin", 
        "absolute_url": "http://vegoresto.fr/resto/le-machon-fin", 
        "lon": 4.75070919999996, 
        "international_phone_number": "+33474662806"
    }, 
    {
        "website": "http://lemekongdor.com/", 
        "national_phone_number": "03 84 56 84 17", 
        "tags": [], 
        "phone": "03 84 56 84 17", 
        "address": "11 rue des Tanneurs<br />\r\n70400 H\u00e9ricourt", 
        "lat": 47.575489, 
        "id": 4656, 
        "name": "Le M\u00e9kong d\u2019Or", 
        "absolute_url": "http://vegoresto.fr/resto/le-mekong-dor", 
        "lon": 6.75961389999998, 
        "international_phone_number": "+33384568417"
    }, 
    {
        "website": "http://www.lemyndos.fr/", 
        "national_phone_number": "04 74 23 60 71", 
        "tags": [], 
        "phone": "04 74 23 60 71", 
        "address": "1, rue Littr\u00e9<br />\r\n01000 Bourg-en-Bresse", 
        "lat": 46.2028658, 
        "id": 4698, 
        "name": "Le Myndos", 
        "absolute_url": "http://vegoresto.fr/resto/le-myndos", 
        "lon": 5.22795020000001, 
        "international_phone_number": "+33474236071"
    }, 
    {
        "website": "http://www.lepigeonnierduperron.com/fr/", 
        "national_phone_number": "05 49 19 76 08", 
        "tags": [
            "gluten-free"
        ], 
        "phone": "05 49 19 76 08", 
        "address": "Lieu dit Le Perron<br />\r\n86530 Availles En Ch\u00e2tellerault", 
        "lat": 46.757621, 
        "id": 4658, 
        "name": "Le Pigeonnier du Perron", 
        "absolute_url": "http://vegoresto.fr/resto/le-pigeonnier-du-perron", 
        "lon": 0.568741999999929, 
        "international_phone_number": "+33549197608"
    }, 
    {
        "website": "http://lepotagerdecharlotte.fr/", 
        "national_phone_number": "01 44 65 09 63", 
        "tags": [
            "vegan", 
            "gluten-free"
        ], 
        "phone": "01 44 65 09 63", 
        "address": "12 rue de la Tour d&#039;Auvergne<br />\r\n75009 Paris", 
        "lat": 48.8790612, 
        "id": 4676, 
        "name": "Le Potager de Charlotte", 
        "absolute_url": "http://vegoresto.fr/resto/le-potager-de-charlotte", 
        "lon": 2.34472970000002, 
        "international_phone_number": "+33144650963"
    }, 
    {
        "website": "http://www.lepotagerdumarais.fr/Potager_du_Marais/Le_Potager_du_Marais.html", 
        "national_phone_number": "01 57 40 98 57", 
        "tags": [
            "vegan", 
            "gluten-free"
        ], 
        "phone": "01 57 40 98 57", 
        "address": "24 rue Rambuteau<br />\r\n75003 Paris", 
        "lat": 48.8610455, 
        "id": 166, 
        "name": "Le Potager du Marais", 
        "absolute_url": "http://vegoresto.fr/resto/le-potager-du-marais", 
        "lon": 2.35402829999998, 
        "international_phone_number": "+33157409857"
    }, 
    {
        "website": "http://www.restaurant-petit-ogre.com/", 
        "national_phone_number": "06 51 63 73 21", 
        "tags": [], 
        "phone": "06 51 63 73 21", 
        "address": "1 rue des P\u00e9nitents Gris<br />\r\n31000 Toulouse", 
        "lat": 43.6055946, 
        "id": 4009, 
        "name": "Le P\u2019tit Ogre", 
        "absolute_url": "http://vegoresto.fr/resto/le-ptit-ogre", 
        "lon": 1.44255799999996, 
        "international_phone_number": "+33651637321"
    }, 
    {
        "website": "www.le-roi-falafel.com/", 
        "national_phone_number": "04 69 67 31 97", 
        "tags": [], 
        "phone": "04 69 67 31 97", 
        "address": "30 Rue Palais Grillet<br />\r\n69002 Lyon", 
        "lat": 45.7619768, 
        "id": 264, 
        "name": "Le Roi Falafel", 
        "absolute_url": "http://vegoresto.fr/resto/le-roi-falafel", 
        "lon": 4.83513849999997, 
        "international_phone_number": "+33469673197"
    }, 
    {
        "website": "", 
        "national_phone_number": "02 99 79 25 52", 
        "tags": [
            "vegetarian", 
            "gluten-free"
        ], 
        "phone": "02 99 79 25 52", 
        "address": "12 rue du Vau Saint Germain<br />\r\n35000 Rennes", 
        "lat": 48.1106624, 
        "id": 4011, 
        "name": "Le Saint Germain Des Champs", 
        "absolute_url": "http://vegoresto.fr/resto/le-saint-germain-des-champs", 
        "lon": -1.67702650000001, 
        "international_phone_number": "+33299792552"
    }, 
    {
        "website": "", 
        "national_phone_number": "02 97 47 28 18", 
        "tags": [], 
        "phone": "02 97 47 28 18", 
        "address": "8 rue des Orf\u00e8vres<br />\r\n56000 Vannes", 
        "lat": 47.6569274, 
        "id": 4638, 
        "name": "Le Saint-Exup\u00e9ry", 
        "absolute_url": "http://vegoresto.fr/resto/le-saint-exupery", 
        "lon": -2.75752020000004, 
        "international_phone_number": "+33297472818"
    }, 
    {
        "website": "http://www.lesamovar.ouvaton.org/", 
        "national_phone_number": "05 56 74 47 91", 
        "tags": [
            "vegetarian"
        ], 
        "phone": "05 56 74 47 91", 
        "address": "18 rue Camille Sauvageau<br />\r\n33800 Bordeaux", 
        "lat": 44.8333505, 
        "id": 4024, 
        "name": "Le Samovar", 
        "absolute_url": "http://vegoresto.fr/resto/le-samovar", 
        "lon": -0.564823899999965, 
        "international_phone_number": "+33556744791"
    }, 
    {
        "website": "http://www.lesarahb.fr/Accueil.html", 
        "national_phone_number": "02 99 90 74 60", 
        "tags": [], 
        "phone": "02 99 90 74 60", 
        "address": "9 quai Saint-Antoine<br />\r\n56130 La Roche-Bernard", 
        "lat": 47.5176743, 
        "id": 4033, 
        "name": "Le Sarah B.", 
        "absolute_url": "http://vegoresto.fr/resto/le-sarah-b", 
        "lon": -2.30327409999995, 
        "international_phone_number": "+33299907460"
    }, 
    {
        "website": "http://leshanti.unblog.fr/", 
        "national_phone_number": "09 81 09 09 31", 
        "tags": [
            "vegetarian"
        ], 
        "phone": "09 81 09 09 31", 
        "address": "69 rue Berbisey<br />\r\n21000 Dijon", 
        "lat": 47.3175914, 
        "id": 4038, 
        "name": "Le Shanti", 
        "absolute_url": "http://vegoresto.fr/resto/le-shanti", 
        "lon": 5.03489790000003, 
        "international_phone_number": "+33981090931"
    }, 
    {
        "website": "http://www.lesoleildasmarachezelsa.com/", 
        "national_phone_number": "04 93 76 84 18", 
        "tags": [], 
        "phone": "04 93 76 84 18", 
        "address": "4 rue Delille<br />\r\n06000 Nice", 
        "lat": 43.7012641, 
        "id": 4652, 
        "name": "Le soleil d\u2019Asmara", 
        "absolute_url": "http://vegoresto.fr/resto/le-soleil-dasmara", 
        "lon": 7.27733969999997, 
        "international_phone_number": "+33493768418"
    }, 
    {
        "website": "", 
        "national_phone_number": "04 93 85 59 50", 
        "tags": [
            "vegan", 
            "gluten-free"
        ], 
        "phone": "04 93 85 59 50", 
        "address": "7 rue Lamartine<br />\r\n06000 Nice", 
        "lat": 43.7016506, 
        "id": 262, 
        "name": "Le Speakeasy", 
        "absolute_url": "http://vegoresto.fr/resto/le-speakeasy", 
        "lon": 7.26917030000004, 
        "international_phone_number": "+33493855950"
    }, 
    {
        "website": "", 
        "national_phone_number": "03 89 27 55 04", 
        "tags": [], 
        "phone": "03 89 27 55 04", 
        "address": "1 place Turenne<br />\r\n68230 Turckheim", 
        "lat": 48.0866344, 
        "id": 226, 
        "name": "Le Stammtisch", 
        "absolute_url": "http://vegoresto.fr/resto/le-stammtisch", 
        "lon": 7.27816929999994, 
        "international_phone_number": "+33389275504"
    }, 
    {
        "website": "", 
        "national_phone_number": "03 89 41 13 01", 
        "tags": [], 
        "phone": "03 89 41 13 01", 
        "address": "22 Rue des Marchands<br />\r\n68000 Colmar", 
        "lat": 48.0769536, 
        "id": 162, 
        "name": "Le Touareg", 
        "absolute_url": "http://vegoresto.fr/resto/le-touareg", 
        "lon": 7.35715860000005, 
        "international_phone_number": "+33389411301"
    }, 
    {
        "website": "www.restaurant-bonsenchablais.fr/", 
        "national_phone_number": "04 50 36 33 22", 
        "tags": [], 
        "phone": "04 50 36 33 22", 
        "address": "185 avenue du Mont de Boisy<br />\r\n74890 Bons en Chablais", 
        "lat": 46.2730222, 
        "id": 249, 
        "name": "Le Treseaur", 
        "absolute_url": "http://vegoresto.fr/resto/le-treseaur", 
        "lon": 6.36094309999999, 
        "international_phone_number": "+33450363322"
    }, 
    {
        "website": "", 
        "national_phone_number": "01 48 24 90 06", 
        "tags": [
            "vegan", 
            "gluten-free"
        ], 
        "phone": "01 48 24 90 06", 
        "address": "55 rue de Paradis<br />\r\n75010 Paris", 
        "lat": 48.8755834, 
        "id": 4048, 
        "name": "Le Veganovore", 
        "absolute_url": "http://vegoresto.fr/resto/le-veganovore", 
        "lon": 2.34876680000002, 
        "international_phone_number": "+33148249006"
    }, 
    {
        "website": "", 
        "national_phone_number": "05 55 34 28 82", 
        "tags": [], 
        "phone": "05 55 34 28 82", 
        "address": "133 Rue Fran\u00e7ois Perrin<br />\r\n87000 Limoges", 
        "lat": 45.8272512, 
        "id": 161, 
        "name": "Le Yak", 
        "absolute_url": "http://vegoresto.fr/resto/le-yak", 
        "lon": 1.23978550000004, 
        "international_phone_number": "+33555342882"
    }, 
    {
        "website": "http://www.restoyeti.com/", 
        "national_phone_number": "05 61 62 80 22", 
        "tags": [], 
        "phone": "05 61 62 80 22", 
        "address": "21 rue de la Colombette<br />\r\n31000 Toulouse", 
        "lat": 43.6044198, 
        "id": 4664, 
        "name": "Le Y\u00e9ti", 
        "absolute_url": "http://vegoresto.fr/resto/le-yeti", 
        "lon": 1.4526065, 
        "international_phone_number": "+33561628022"
    }, 
    {
        "website": "", 
        "national_phone_number": "02 97 54 19 17", 
        "tags": [
            "gluten-free"
        ], 
        "phone": "02 97 54 19 17", 
        "address": "5 rue St Vincent<br />\r\n56000 Vannes", 
        "lat": 47.6548095, 
        "id": 203, 
        "name": "Lecocq&Folks", 
        "absolute_url": "http://vegoresto.fr/resto/lecocqfolks", 
        "lon": -2.75802410000006, 
        "international_phone_number": "+33297541917"
    }, 
    {
        "website": "http://www.restaurantles5sens.com/", 
        "national_phone_number": "04 90 85 26 51", 
        "tags": [], 
        "phone": "04 90 85 26 51", 
        "address": "18 Rue Joseph Vernet<br />\r\n84000 Avignon", 
        "lat": 43.9495529, 
        "id": 4697, 
        "name": "Les 5 Sens", 
        "absolute_url": "http://vegoresto.fr/resto/les-5-sens", 
        "lon": 4.80366660000004, 
        "international_phone_number": "+33490852651"
    }, 
    {
        "website": "www.lesamantsdumarche.fr/", 
        "national_phone_number": "05 59 02 75 51", 
        "tags": [
            "vegetarian", 
            "gluten-free"
        ], 
        "phone": "05 59 02 75 51", 
        "address": "1 rue Bourbaki<br />\r\n64000 Pau", 
        "lat": 43.3031226, 
        "id": 256, 
        "name": "Les amants du march\u00e9", 
        "absolute_url": "http://vegoresto.fr/resto/les-amants-du-marche", 
        "lon": -0.371049099999937, 
        "international_phone_number": "+33559027551"
    }, 
    {
        "website": "", 
        "national_phone_number": "06 45 39 25 52", 
        "tags": [
            "vegetarian", 
            "gluten-free"
        ], 
        "phone": "06 45 39 25 52", 
        "address": "7, rue du moulin<br />\r\n24620 Les Eyzies", 
        "lat": 44.9360513, 
        "id": 290, 
        "name": "Les carottes sont cuites", 
        "absolute_url": "http://vegoresto.fr/resto/les-carottes-sont-cuites", 
        "lon": 1.01471689999994, 
        "international_phone_number": "+33645392552"
    }, 
    {
        "website": "", 
        "national_phone_number": "02 41 19 68 82", 
        "tags": [], 
        "phone": "02 41 19 68 82", 
        "address": "3 et 4 rue de l&#039;Espine<br />\r\n49100 Angers", 
        "lat": 47.4724365, 
        "id": 4681, 
        "name": "Les Casse-Cro\u00fbte de Suzy", 
        "absolute_url": "http://vegoresto.fr/resto/casse-croute-de-suzy", 
        "lon": -0.552276099999972, 
        "international_phone_number": "+33241196882"
    }, 
    {
        "website": "www.lesdelicesdegigi.com/", 
        "national_phone_number": "01 43 24 07 53", 
        "tags": [
            "vegan", 
            "gluten-free"
        ], 
        "phone": "01 43 24 07 53", 
        "address": "67 avenue Ledru Rollin<br />\r\n94170 Le Perreux Sur Marne", 
        "lat": 48.84264, 
        "id": 231, 
        "name": "Les d\u00e9lices de Gigi", 
        "absolute_url": "http://vegoresto.fr/resto/les-delices-de-gigi", 
        "lon": 2.50240099999996, 
        "international_phone_number": "+33143240753"
    }, 
    {
        "website": "lacrusinedeleilla.wordpress.com/", 
        "national_phone_number": "06 84 00 65 36", 
        "tags": [
            "vegan", 
            "gluten-free"
        ], 
        "phone": "06 84 00 65 36", 
        "address": "97 rue de Finlande<br />\r\n81000 Albi", 
        "lat": 43.9257895, 
        "id": 181, 
        "name": "Les D\u00e9lices de Leilla", 
        "absolute_url": "http://vegoresto.fr/resto/les-delices-de-leilla", 
        "lon": 2.1307147, 
        "international_phone_number": "+33684006536"
    }, 
    {
        "website": "www.lesdemoisellesdemontpellier.fr", 
        "national_phone_number": "04 99 65 56 43", 
        "tags": [
            "gluten-free"
        ], 
        "phone": "04 99 65 56 43", 
        "address": "2 rue de la Carbonnerie<br />\r\n34000 Montpellier", 
        "lat": 43.6117336, 
        "id": 4687, 
        "name": "Les Demoiselles de Montpellier", 
        "absolute_url": "http://vegoresto.fr/resto/demoiselles-de-montpellier", 
        "lon": 3.87815939999996, 
        "international_phone_number": "+33499655643"
    }, 
    {
        "website": "www.lesdeuxabbesses.com/intro/index.html", 
        "national_phone_number": "06 76 82 85 10", 
        "tags": [
            "vegan", 
            "gluten-free"
        ], 
        "phone": "06 76 82 85 10", 
        "address": "Le petit couvent<br />\r\n43300 St Arcons d&#039;Allier", 
        "lat": 45.068254, 
        "id": 216, 
        "name": "Les Deux Abbesses", 
        "absolute_url": "http://vegoresto.fr/resto/les-deux-abbesses", 
        "lon": 3.54955700000005, 
        "international_phone_number": "+33676828510"
    }, 
    {
        "website": "www.crusine.org/default.html", 
        "national_phone_number": "06 29 71 49 14", 
        "tags": [
            "vegan", 
            "gluten-free"
        ], 
        "phone": "06 29 71 49 14", 
        "address": "35 rue des Jardins<br />\r\n57000 Metz", 
        "lat": 49.1220943, 
        "id": 210, 
        "name": "Les Petits Zozios", 
        "absolute_url": "http://vegoresto.fr/resto/les-petits-zozios", 
        "lon": 6.17795479999995, 
        "international_phone_number": "+33629714914"
    }, 
    {
        "website": "http://www.les-potes-au-feu.fr/", 
        "national_phone_number": "02 97 62 15 80", 
        "tags": [
            "gluten-free"
        ], 
        "phone": "02 97 62 15 80", 
        "address": "7 place d\u2019Irlande<br />\r\n56860 S\u00e9n\u00e9", 
        "lat": 47.6514018, 
        "id": 294, 
        "name": "Les potes au Feu", 
        "absolute_url": "http://vegoresto.fr/resto/les-potes-au-feu", 
        "lon": -2.72049609999999, 
        "international_phone_number": "+33297621580"
    }, 
    {
        "website": "", 
        "national_phone_number": "06 89 03 04 62", 
        "tags": [], 
        "phone": "06 89 03 04 62", 
        "address": "1 Avenue G\u00e9n\u00e9ral de Gaulle<br />\r\n29246 Poullaouen", 
        "lat": 48.3395668, 
        "id": 4029, 
        "name": "Les Puces, Boutique Solidaire", 
        "absolute_url": "http://vegoresto.fr/resto/les-puces-boutique-solidaire", 
        "lon": -3.64131699999996, 
        "international_phone_number": "+33689030462"
    }, 
    {
        "website": "", 
        "national_phone_number": "02 97 47 52 44", 
        "tags": [], 
        "phone": "02 97 47 52 44", 
        "address": "6 Rue Alexandre le Pontois<br />\r\n56000 Vannes", 
        "lat": 47.6546571, 
        "id": 266, 
        "name": "Les Remparts", 
        "absolute_url": "http://vegoresto.fr/resto/les-remparts", 
        "lon": -2.75651170000003, 
        "international_phone_number": "+33297475244"
    }, 
    {
        "website": "http://www.lillietlevegabon.com/", 
        "national_phone_number": "06 12 27 87 98", 
        "tags": [
            "vegetarian", 
            "vegan", 
            "gluten-free"
        ], 
        "phone": "06 12 27 87 98", 
        "address": "06000 Nice", 
        "lat": 43.7101728, 
        "id": 4623, 
        "name": "Lilli et le Vegabon", 
        "absolute_url": "http://vegoresto.fr/resto/lili-et-le-vegabon", 
        "lon": 7.26195319999999, 
        "international_phone_number": "+33612278798"
    }, 
    {
        "website": "", 
        "national_phone_number": "06 20 54 45 92", 
        "tags": [
            "vegan", 
            "gluten-free"
        ], 
        "phone": "06 20 54 45 92", 
        "address": "77 rue de Lodi<br />\r\n13006 Marseille", 
        "lat": 43.2894616, 
        "id": 255, 
        "name": "Londonewyork", 
        "absolute_url": "http://vegoresto.fr/resto/londonewyork", 
        "lon": 5.38734699999998, 
        "international_phone_number": "+33620544592"
    }, 
    {
        "website": "menton.lovinghut.fr/", 
        "national_phone_number": "04 92 07 32 57", 
        "tags": [
            "vegan"
        ], 
        "phone": "04 92 07 32 57", 
        "address": "649 promenade du soleil<br />\r\n06500 Menton", 
        "lat": 43.7700846, 
        "id": 248, 
        "name": "Loving Hut Menton", 
        "absolute_url": "http://vegoresto.fr/resto/loving-hut-menton", 
        "lon": 7.49343109999995, 
        "international_phone_number": "+33492073257"
    }, 
    {
        "website": "paris.lovinghut.fr/", 
        "national_phone_number": "01 48 06 43 84", 
        "tags": [
            "gluten-free"
        ], 
        "phone": "01 48 06 43 84", 
        "address": "92 boulevard Beaumarchais<br />\r\n75011 Paris", 
        "lat": 48.8598848, 
        "id": 245, 
        "name": "Loving Hut Paris", 
        "absolute_url": "http://vegoresto.fr/resto/loving-hut-paris", 
        "lon": 2.36785459999999, 
        "international_phone_number": "+33148064384"
    }, 
    {
        "website": "http://www.lulu-dijon.com/", 
        "national_phone_number": "09 86 31 65 46", 
        "tags": [
            "vegan", 
            "gluten-free"
        ], 
        "phone": "09 86 31 65 46", 
        "address": "12 rue de la Poste<br />\r\n21000 Dijon", 
        "lat": 47.3234548, 
        "id": 4670, 
        "name": "Lulu \u2013 Graine d\u2019un monde", 
        "absolute_url": "http://vegoresto.fr/resto/lulu-graine-dun-monde", 
        "lon": 5.03651450000007, 
        "international_phone_number": "+33986316546"
    }, 
    {
        "website": "www.restobiolacoustic.com/", 
        "national_phone_number": "03 88 92 29 40", 
        "tags": [
            "vegetarian"
        ], 
        "phone": "03 88 92 29 40", 
        "address": "5 place du March\u00e9 Vert<br />\r\n67600 S\u00e9lestat", 
        "lat": 48.2595149, 
        "id": 276, 
        "name": "L\u2019Acoustic", 
        "absolute_url": "http://vegoresto.fr/resto/lacoustic", 
        "lon": 7.45563279999999, 
        "international_phone_number": "+33388922940"
    }, 
    {
        "website": "", 
        "national_phone_number": "02 96 69 20 95", 
        "tags": [
            "gluten-free"
        ], 
        "phone": "02 96 69 20 95", 
        "address": "2 Rue de Tregueux<br />\r\n22000 Saint-Brieuc", 
        "lat": 48.5035917, 
        "id": 4709, 
        "name": "L\u2019Anis Etoil\u00e9", 
        "absolute_url": "http://vegoresto.fr/resto/lanis-etoile", 
        "lon": -2.76221399999997, 
        "international_phone_number": "+33296692095"
    }, 
    {
        "website": "", 
        "national_phone_number": "04 68 91 53 95", 
        "tags": [], 
        "phone": "04 68 91 53 95", 
        "address": "82 Rue Droite<br />\r\n11100  Narbonne", 
        "lat": 43.1857093, 
        "id": 4707, 
        "name": "L\u2019Apsara", 
        "absolute_url": "http://vegoresto.fr/resto/lapsara", 
        "lon": 3.00561040000002, 
        "international_phone_number": "+33468915395"
    }, 
    {
        "website": "http://leffet-papillon.blogspot.fr/", 
        "national_phone_number": "02 98 74 29 25", 
        "tags": [
            "gluten-free"
        ], 
        "phone": "02 98 74 29 25", 
        "address": "22 rue de Douarnenez<br />\r\n29000 Quimper", 
        "lat": 47.9974667, 
        "id": 4006, 
        "name": "L\u2019Effet Papillon", 
        "absolute_url": "http://vegoresto.fr/resto/leffet-papillon", 
        "lon": -4.10970029999999, 
        "international_phone_number": "+33298742925"
    }, 
    {
        "website": "", 
        "national_phone_number": "09 83 85 53 88", 
        "tags": [
            "gluten-free"
        ], 
        "phone": "09 83 85 53 88", 
        "address": "20 place Valencia<br />\r\n56000 Vannes", 
        "lat": 47.6568428, 
        "id": 4034, 
        "name": "L\u2019Entrechoc", 
        "absolute_url": "http://vegoresto.fr/resto/lentrechoc", 
        "lon": -2.75741010000002, 
        "international_phone_number": "+33983855388"
    }, 
    {
        "website": "www.lescargotdesab.fr/", 
        "national_phone_number": "03 86 62 10 38", 
        "tags": [
            "vegan"
        ], 
        "phone": "03 86 62 10 38", 
        "address": "1 avenue Roger Varrey<br />\r\n89300 Joigny", 
        "lat": 47.9806706, 
        "id": 175, 
        "name": "L\u2019Escargot de Sab", 
        "absolute_url": "http://vegoresto.fr/resto/lescargot-de-sab", 
        "lon": 3.40149799999995, 
        "international_phone_number": "+33386621038"
    }, 
    {
        "website": "www.restaurantlessentiel.fr/", 
        "national_phone_number": "04 69 70 88 00", 
        "tags": [], 
        "phone": "04 69 70 88 00", 
        "address": "9 rue Rachais<br />\r\n69003 Lyon", 
        "lat": 45.7519394, 
        "id": 224, 
        "name": "L\u2019Essentiel", 
        "absolute_url": "http://vegoresto.fr/resto/lessentiel", 
        "lon": 4.85411920000001, 
        "international_phone_number": "+33469708800"
    }, 
    {
        "website": "http://vitasensys.eu/food/restaurant.php", 
        "national_phone_number": "37797988146", 
        "tags": [
            "gluten-free"
        ], 
        "phone": "377 97 98 81 46", 
        "address": "1 rue Biov\u00e8s<br />\r\nMonaco", 
        "lat": 43.7327247, 
        "id": 4041, 
        "name": "L\u2019inattendu(e)", 
        "absolute_url": "http://vegoresto.fr/resto/linattendue", 
        "lon": 7.41642339999999, 
        "international_phone_number": "+3337797988146"
    }, 
    {
        "website": "http://www.magnaleda-restaurantbion.com", 
        "national_phone_number": "04 42 28 00 80", 
        "tags": [
            "gluten-free"
        ], 
        "phone": "04 42 28 00 80", 
        "address": "6110 Route d&#039;Avignon<br />\r\n13540 Aix-en-Provence", 
        "lat": 43.5849462, 
        "id": 4657, 
        "name": "Magnaleda", 
        "absolute_url": "http://vegoresto.fr/resto/magnaleda", 
        "lon": 5.37153239999998, 
        "international_phone_number": "+33442280080"
    }, 
    {
        "website": "www.manger-autrement.com/", 
        "national_phone_number": "05 61 32 68 41", 
        "tags": [
            "vegetarian", 
            "gluten-free"
        ], 
        "phone": "05 61 32 68 41", 
        "address": "155 Grande rue Saint-Michel<br />\r\n31400 Toulouse", 
        "lat": 43.5910499, 
        "id": 173, 
        "name": "Manger Autrement", 
        "absolute_url": "http://vegoresto.fr/resto/manger-autrement", 
        "lon": 1.44474109999999, 
        "international_phone_number": "+33561326841"
    }, 
    {
        "website": "", 
        "national_phone_number": "03 63 78 56 63", 
        "tags": [
            "vegetarian", 
            "gluten-free"
        ], 
        "phone": "03 63 78 56 63", 
        "address": "6, Grand&#039;Rue<br />\r\n90000 Belfort", 
        "lat": 47.639366, 
        "id": 293, 
        "name": "Marcel et Suzon", 
        "absolute_url": "http://vegoresto.fr/resto/marcel-et-suzon", 
        "lon": 6.86322700000005, 
        "international_phone_number": "+33363785663"
    }, 
    {
        "website": "http://www.marcovaldo.fr/", 
        "national_phone_number": "09 80 44 86 49", 
        "tags": [], 
        "phone": "09 80 44 86 49", 
        "address": "61, rue Charlot<br />\r\n75003 Paris", 
        "lat": 48.8637677, 
        "id": 292, 
        "name": "Marcovaldo", 
        "absolute_url": "http://vegoresto.fr/resto/marcovaldo", 
        "lon": 2.36331510000002, 
        "international_phone_number": "+33980448649"
    }, 
    {
        "website": "http://www.adiyamancigkoftecisi.com/", 
        "national_phone_number": "06 12 68 11 91", 
        "tags": [
            "vegetarian"
        ], 
        "phone": "06 12 68 11 91", 
        "address": "88 Rue de la R\u00e9publique <br />\r\n38300 Bourgoin-Jallieu", 
        "lat": 45.5855751, 
        "id": 4028, 
        "name": "Meshur Adiyaman Cigkoftesi (Bourgoin-Jallieu)", 
        "absolute_url": "http://vegoresto.fr/resto/meshur-adiyaman-cigkoftesi-bourgoin-jallieu", 
        "lon": 5.27203789999999, 
        "international_phone_number": "+33612681191"
    }, 
    {
        "website": "mezzalunaarras.com/", 
        "national_phone_number": "03 21 22 89 63", 
        "tags": [
            "vegan"
        ], 
        "phone": "03 21 22 89 63", 
        "address": "10 rue L\u00e9on Gambetta<br />\r\n62000 Arras", 
        "lat": 50.2877239, 
        "id": 254, 
        "name": "Mezzaluna", 
        "absolute_url": "http://vegoresto.fr/resto/mezzaluna", 
        "lon": 2.77976960000001, 
        "international_phone_number": "+33321228963"
    }, 
    {
        "website": "http://www.monpetitliban.com/", 
        "national_phone_number": "05 55 79 07 37", 
        "tags": [], 
        "phone": "05 55 79 07 37", 
        "address": "64 avenue Garibaldi<br />\r\n87000 Limoges", 
        "lat": 45.8378012, 
        "id": 163, 
        "name": "Mon Petit Liban", 
        "absolute_url": "http://vegoresto.fr/resto/mon-petit-liban", 
        "lon": 1.25899720000007, 
        "international_phone_number": "+33555790737"
    }, 
    {
        "website": "http://www.myfreekitchen.com/", 
        "national_phone_number": "01 48 01 67 64", 
        "tags": [
            "gluten-free"
        ], 
        "phone": "01 48 01 67 64", 
        "address": "1 bis rue Bleue<br />\r\n75009 Paris", 
        "lat": 48.8756913, 
        "id": 4047, 
        "name": "My Free Kitchen", 
        "absolute_url": "http://vegoresto.fr/resto/my-free-kitchen", 
        "lon": 2.34772739999994, 
        "international_phone_number": "+33148016764"
    }, 
    {
        "website": "www.mykitchn.fr", 
        "national_phone_number": "06 16 15 44 74", 
        "tags": [
            "vegan", 
            "gluten-free"
        ], 
        "phone": "06 16 15 44 74", 
        "address": "82 rue Lemercier<br />\r\n75017 Paris", 
        "lat": 48.8886441, 
        "id": 244, 
        "name": "My Kitch\u2019n", 
        "absolute_url": "http://vegoresto.fr/resto/my-kitchn", 
        "lon": 2.3204164, 
        "international_phone_number": "+33616154474"
    }, 
    {
        "website": "http://www.cafemyrtille.com/", 
        "national_phone_number": "04 73 39 09 97", 
        "tags": [
            "vegetarian"
        ], 
        "phone": "04 73 39 09 97", 
        "address": "4, Petite rue Saint-Pierre<br />\r\n63000 Clermont-Ferrand", 
        "lat": 45.77906, 
        "id": 4669, 
        "name": "Myrtille", 
        "absolute_url": "http://vegoresto.fr/resto/myrtille", 
        "lon": 3.08335769999997, 
        "international_phone_number": "+33473390997"
    }, 
    {
        "website": "", 
        "national_phone_number": "09 50 76 05 97", 
        "tags": [
            "gluten-free"
        ], 
        "phone": "09 50 76 05 97", 
        "address": "10 place Saint Marc<br />\r\n30400 Villeneuve-l\u00e8s-Avignon", 
        "lat": 43.9638785, 
        "id": 4700, 
        "name": "Naturabsolu", 
        "absolute_url": "http://vegoresto.fr/resto/naturabsolu", 
        "lon": 4.7969008, 
        "international_phone_number": "+33950760597"
    }, 
    {
        "website": "", 
        "national_phone_number": "06 18 32 16 19", 
        "tags": [
            "vegan", 
            "gluten-free"
        ], 
        "phone": "06 18 32 16 19", 
        "address": "18 rue de la Fontaine<br />\r\n34000 Montpellier", 
        "lat": 43.6071964, 
        "id": 4705, 
        "name": "Natural Sens", 
        "absolute_url": "http://vegoresto.fr/resto/natural-sens", 
        "lon": 3.87587740000004, 
        "international_phone_number": "+33618321619"
    }, 
    {
        "website": "", 
        "national_phone_number": "04 72 41 96 37", 
        "tags": [], 
        "phone": "04 72 41 96 37", 
        "address": "5 avenue du Doyenn\u00e9<br />\r\n69005 Lyon", 
        "lat": 45.7594676, 
        "id": 4040, 
        "name": "New Delhi", 
        "absolute_url": "http://vegoresto.fr/resto/new-delhi", 
        "lon": 4.82659769999998, 
        "international_phone_number": "+33472419637"
    }, 
    {
        "website": "", 
        "national_phone_number": "04 94 05 45 53", 
        "tags": [], 
        "phone": "04 94 05 45 53", 
        "address": "Avenue Fr\u00e9d\u00e9ric Mistral<br />\r\n83240 Cavalaire-sur-Mer", 
        "lat": 43.1754494, 
        "id": 205, 
        "name": "Nou-No\u00ef", 
        "absolute_url": "http://vegoresto.fr/resto/nou-noi", 
        "lon": 6.53227319999996, 
        "international_phone_number": "+33494054553"
    }, 
    {
        "website": "http://www.osakabox.fr/", 
        "national_phone_number": "05 55 74 00 82", 
        "tags": [], 
        "phone": "05 55 74 00 82", 
        "address": "19 place Winston Churchill<br />\r\n19100 Brive la Gaillarde", 
        "lat": 45.1568356, 
        "id": 160, 
        "name": "Osaka Box", 
        "absolute_url": "http://vegoresto.fr/resto/osaka-box", 
        "lon": 1.53610760000004, 
        "international_phone_number": "+33555740082"
    }, 
    {
        "website": "www.osescigkofte.com", 
        "national_phone_number": "03 89 41 08 68", 
        "tags": [
            "vegetarian"
        ], 
        "phone": "03 89 41 08 68", 
        "address": "6 Place de la Gare<br />\r\n68000 Colmar", 
        "lat": 48.0728286, 
        "id": 168, 
        "name": "Oses Cigkofte (Colmar)", 
        "absolute_url": "http://vegoresto.fr/resto/oses-cigkofte-colmar", 
        "lon": 7.34783530000004, 
        "international_phone_number": "+33389410868"
    }, 
    {
        "website": "oulalatraiteur.com/", 
        "national_phone_number": null, 
        "tags": [
            "vegan", 
            "gluten-free"
        ], 
        "phone": "uniquement par mail", 
        "address": "Paris", 
        "lat": 48.856614, 
        "id": 235, 
        "name": "Oulala Traiteur", 
        "absolute_url": "http://vegoresto.fr/resto/oulala", 
        "lon": 2.35222190000002, 
        "international_phone_number": null
    }, 
    {
        "website": "", 
        "national_phone_number": "06 68 18 09 37", 
        "tags": [
            "vegetarian"
        ], 
        "phone": "06 68 18 09 37", 
        "address": "rue des Postes<br />\r\n59000 Lille", 
        "lat": 50.6233557, 
        "id": 158, 
        "name": "Oum Falafel", 
        "absolute_url": "http://vegoresto.fr/resto/oum-falafel", 
        "lon": 3.05408320000004, 
        "international_phone_number": "+33668180937"
    }, 
    {
        "website": "", 
        "national_phone_number": "05 61 12 48 38", 
        "tags": [], 
        "phone": "05 61 12 48 38", 
        "address": "15 rue L\u00e9on Gambetta<br />\r\n31000 Toulouse", 
        "lat": 43.6030644, 
        "id": 176, 
        "name": "O\u2019Saj Restauration", 
        "absolute_url": "http://vegoresto.fr/resto/osaj-restauration", 
        "lon": 1.44180740000002, 
        "international_phone_number": "+33561124838"
    }, 
    {
        "website": "", 
        "national_phone_number": "02 31 80 70 82", 
        "tags": [
            "vegetarian", 
            "vegan", 
            "gluten-free"
        ], 
        "phone": "02 31 80 70 82", 
        "address": "23 rue Gemarre<br />\r\n14000 Caen", 
        "lat": 49.1842329, 
        "id": 252, 
        "name": "Pancake Night Fever", 
        "absolute_url": "http://vegoresto.fr/resto/pancake-night-fever", 
        "lon": -0.364399300000059, 
        "international_phone_number": "+33231807082"
    }, 
    {
        "website": "www.panieramande.com/", 
        "national_phone_number": "06 87 47 75 52", 
        "tags": [
            "vegan", 
            "gluten-free"
        ], 
        "phone": "06 87 47 75 52", 
        "address": "Dax, Orthez", 
        "lat": 43.708608, 
        "id": 261, 
        "name": "Panier Amande", 
        "absolute_url": "http://vegoresto.fr/resto/panier-amande", 
        "lon": -1.05194499999993, 
        "international_phone_number": "+33687477552"
    }, 
    {
        "website": "", 
        "national_phone_number": "06 49 84 58 56", 
        "tags": [
            "gluten-free"
        ], 
        "phone": "06 49 84 58 56", 
        "address": "3 rue Buffon<br />\r\n75005 Paris", 
        "lat": 48.843093, 
        "id": 4022, 
        "name": "Pause Bobun", 
        "absolute_url": "http://vegoresto.fr/resto/pause-bobun", 
        "lon": 2.36355070000002, 
        "international_phone_number": "+33649845856"
    }, 
    {
        "website": "http://www.monph7.com/", 
        "national_phone_number": "09 83 87 95 95", 
        "tags": [
            "vegetarian", 
            "gluten-free"
        ], 
        "phone": "09 83 87 95 95", 
        "address": "21 rue Le Peletier<br />\r\n75009 Paris", 
        "lat": 48.8729687, 
        "id": 4659, 
        "name": "PH7 \u00c9quilibre", 
        "absolute_url": "http://vegoresto.fr/resto/ph7-equilibre", 
        "lon": 2.33835239999996, 
        "international_phone_number": "+33983879595"
    }, 
    {
        "website": "http://www.pitapit.fr/index.html#/pita-pit-aix", 
        "national_phone_number": "04 42 69 84 19", 
        "tags": [
            "gluten-free"
        ], 
        "phone": "04 42 69 84 19", 
        "address": "56 place Richelme<br />\r\n13100 Aix-en-Provence", 
        "lat": 43.5290618, 
        "id": 4648, 
        "name": "Pita Pit (Aix-en-Provence)", 
        "absolute_url": "http://vegoresto.fr/resto/pita-pit-aix-en-provence", 
        "lon": 5.44826190000003, 
        "international_phone_number": "+33442698419"
    }, 
    {
        "website": "http://www.pitapit.fr/index.html#/pita-pit-caen", 
        "national_phone_number": "02 31 45 36 54", 
        "tags": [
            "gluten-free"
        ], 
        "phone": "02 31 45 36 54", 
        "address": "21 Boulevard du Mar\u00e9chal Leclerc<br />\r\n14 000 Caen", 
        "lat": 49.1824245, 
        "id": 4649, 
        "name": "Pita Pit (Caen)", 
        "absolute_url": "http://vegoresto.fr/resto/pita-pit-caen", 
        "lon": -0.36190160000001, 
        "international_phone_number": "+33231453654"
    }, 
    {
        "website": "http://www.pitapit.fr/index.html#/pita-pit-lille", 
        "national_phone_number": "03 20 55 82 94", 
        "tags": [
            "gluten-free"
        ], 
        "phone": "03 20 55 82 94", 
        "address": "50 rue Massena<br />\r\n59 000 Lille", 
        "lat": 50.6320316, 
        "id": 4650, 
        "name": "Pita Pit (Lille)", 
        "absolute_url": "http://vegoresto.fr/resto/pita-pit-lille", 
        "lon": 3.05500400000005, 
        "international_phone_number": "+33320558294"
    }, 
    {
        "website": "http://www.pitapit.fr/index.html#/pita-pit-nantes", 
        "national_phone_number": "02 40 74 60 12", 
        "tags": [
            "gluten-free"
        ], 
        "phone": "02 40 74 60 12", 
        "address": "5 place du Commerce<br />\r\n44000 Nantes", 
        "lat": 47.2137468, 
        "id": 4646, 
        "name": "Pita Pit (Nantes)", 
        "absolute_url": "http://vegoresto.fr/resto/pita-pit-nantes", 
        "lon": -1.55770919999998, 
        "international_phone_number": "+33240746012"
    }, 
    {
        "website": "http://www.pitapit.fr/index.html#/home", 
        "national_phone_number": "02 99 63 94 95", 
        "tags": [
            "gluten-free"
        ], 
        "phone": "02 99 63 94 95", 
        "address": "8 rue de la Visitation<br />\r\n35000 Rennes", 
        "lat": 48.1143287, 
        "id": 4042, 
        "name": "Pita Pit (Rennes)", 
        "absolute_url": "http://vegoresto.fr/resto/pita-pit-rennes", 
        "lon": -1.67907650000006, 
        "international_phone_number": "+33299639495"
    }, 
    {
        "website": "", 
        "national_phone_number": "09 52 45 01 23", 
        "tags": [
            "vegetarian"
        ], 
        "phone": "09 52 45 01 23", 
        "address": "15 rue de la Croix<br />\r\n67000 Strasbourg", 
        "lat": 48.5829248, 
        "id": 4701, 
        "name": "Pizz\u2019Ar\u00f4me", 
        "absolute_url": "http://vegoresto.fr/resto/pizzarome", 
        "lon": 7.75416819999998, 
        "international_phone_number": "+33952450123"
    }, 
    {
        "website": "http://www.pleine-nature.fr/", 
        "national_phone_number": "04 90 32 65 33", 
        "tags": [
            "gluten-free"
        ], 
        "phone": "04 90 32 65 33", 
        "address": "Centre Commercial Avignon Nord<br />\r\nAvenue Fran\u00e7ois Mauriac<br />\r\n84700 Sorgues", 
        "lat": 43.984551, 
        "id": 4677, 
        "name": "Pleine Nature", 
        "absolute_url": "http://vegoresto.fr/resto/pleine-nature", 
        "lon": 4.88659480000001, 
        "international_phone_number": "+33490326533"
    }, 
    {
        "website": "http://www.pomhello.fr/", 
        "national_phone_number": "04 68 91 19 75", 
        "tags": [
            "vegetarian", 
            "gluten-free"
        ], 
        "phone": "04 68 91 19 75", 
        "address": "41, rue Droite<br />\r\n11100 Narbonne", 
        "lat": 43.1850226, 
        "id": 4702, 
        "name": "Pom\u2019Hello", 
        "absolute_url": "http://vegoresto.fr/resto/pomhello", 
        "lon": 3.00474940000004, 
        "international_phone_number": "+33468911975"
    }, 
    {
        "website": "www.pulpkitchen.fr/", 
        "national_phone_number": "03 28 14 18 59", 
        "tags": [
            "gluten-free"
        ], 
        "phone": "03 28 14 18 59", 
        "address": "106 rue de l&#039;h\u00f4pital militaire<br />\r\n59000 Lille", 
        "lat": 50.6364716, 
        "id": 272, 
        "name": "Pulp Kitchen", 
        "absolute_url": "http://vegoresto.fr/resto/pulp-kitchen", 
        "lon": 3.05928140000003, 
        "international_phone_number": "+33328141859"
    }, 
    {
        "website": "", 
        "national_phone_number": "02 43 53 55 66", 
        "tags": [], 
        "phone": "02 43 53 55 66", 
        "address": "23 quai Sadi-carnot<br />\r\n53000 Laval", 
        "lat": 48.0700062, 
        "id": 4673, 
        "name": "Quai 23", 
        "absolute_url": "http://vegoresto.fr/resto/quai-23", 
        "lon": -0.76953739999999, 
        "international_phone_number": "+33243535566"
    }, 
    {
        "website": "www.hotel-stjacques.com/", 
        "national_phone_number": "05 55 25 41 02", 
        "tags": [], 
        "phone": "05 55 25 41 02", 
        "address": "Le Bourg<br />\r\n19500 Collonges La Rouge", 
        "lat": 45.077972, 
        "id": 198, 
        "name": "Relais St Jacques de Compostelle", 
        "absolute_url": "http://vegoresto.fr/resto/relais-st-jacques-de-compostelle", 
        "lon": 1.69537100000002, 
        "international_phone_number": "+33555254102"
    }, 
    {
        "website": "http://lerest-o.fr/", 
        "national_phone_number": "09 52 36 71 38", 
        "tags": [
            "vegetarian", 
            "gluten-free"
        ], 
        "phone": "09 52 36 71 38", 
        "address": "16 quai de Bacalan <br />\r\n33300 Bordeaux", 
        "lat": 44.8573735, 
        "id": 4050, 
        "name": "Rest\u2019O", 
        "absolute_url": "http://vegoresto.fr/resto/bordeaux", 
        "lon": -0.560460400000011, 
        "international_phone_number": "+33952367138"
    }, 
    {
        "website": "", 
        "national_phone_number": "06 11 12 11 35", 
        "tags": [
            "vegetarian", 
            "gluten-free"
        ], 
        "phone": "06 11 12 11 35", 
        "address": "49 cours de l&#039;Argonne<br />\r\n33000 Bordeaux", 
        "lat": 44.8289827, 
        "id": 172, 
        "name": "Rise Up\u2019N Shine", 
        "absolute_url": "http://vegoresto.fr/resto/riseup-n-shine", 
        "lon": -0.574326400000018, 
        "international_phone_number": "+33611121135"
    }, 
    {
        "website": "http://www.rootsveganfood.kingeshop.com/", 
        "national_phone_number": "03 21 39 40 94", 
        "tags": [
            "vegan"
        ], 
        "phone": "03 21 39 40 94", 
        "address": "59000 Lille", 
        "lat": 50.62925, 
        "id": 4667, 
        "name": "Roots Vegan Food", 
        "absolute_url": "http://vegoresto.fr/resto/roots-vegan-food", 
        "lon": 3.05725600000005, 
        "international_phone_number": "+33321394094"
    }, 
    {
        "website": "sainterussie.fr/contact.php", 
        "national_phone_number": "04 78 23 90 16", 
        "tags": [], 
        "phone": "04 78 23 90 16", 
        "address": "12 rue Juiverie<br />\r\n69005 Lyon", 
        "lat": 45.7657763, 
        "id": 223, 
        "name": "Sainte Russie", 
        "absolute_url": "http://vegoresto.fr/resto/sainte-russie", 
        "lon": 4.82724200000007, 
        "international_phone_number": "+33478239016"
    }, 
    {
        "website": "//www.sambahia.fr/", 
        "national_phone_number": "04 78 37 82 10", 
        "tags": [], 
        "phone": "04 78 37 82 10", 
        "address": "13 rue du Doyenn\u00e9<br />\r\n69005 Lyon", 
        "lat": 45.7588171, 
        "id": 228, 
        "name": "Sambahia", 
        "absolute_url": "http://vegoresto.fr/resto/sambahia", 
        "lon": 4.82601279999994, 
        "international_phone_number": "+33478378210"
    }, 
    {
        "website": "http://www.saveursbio.com", 
        "national_phone_number": "05 61 12 15 15", 
        "tags": [], 
        "phone": "05 61 12 15 15", 
        "address": "22 rue Maurice Fonvieille<br />\r\n31000 Toulouse", 
        "lat": 43.6037462, 
        "id": 284, 
        "name": "Saveurs Bio", 
        "absolute_url": "http://vegoresto.fr/resto/saveurs-bio", 
        "lon": 1.44953740000005, 
        "international_phone_number": "+33561121515"
    }, 
    {
        "website": "", 
        "national_phone_number": "02 97 42 65 07", 
        "tags": [], 
        "phone": "02 97 42 65 07", 
        "address": "30 ter rue Thiers<br />\r\n56000 Vannes", 
        "lat": 47.6573305, 
        "id": 4054, 
        "name": "Saveurs de l\u2019Inde", 
        "absolute_url": "http://vegoresto.fr/resto/saveurs-de-linde", 
        "lon": -2.75963960000001, 
        "international_phone_number": "+33297426507"
    }, 
    {
        "website": "www.albilislesurtarnpo.com/", 
        "national_phone_number": "04 68 52 07 81", 
        "tags": [
            "vegetarian", 
            "gluten-free"
        ], 
        "phone": "04 68 52 07 81", 
        "address": "7 rue Paul Massot<br />\r\n66000 Perpignan", 
        "lat": 42.6966043, 
        "id": 247, 
        "name": "Saveurs Nature", 
        "absolute_url": "http://vegoresto.fr/resto/saveurs-nature", 
        "lon": 2.88345170000002, 
        "international_phone_number": "+33468520781"
    }, 
    {
        "website": "", 
        "national_phone_number": "02 34 37 09 27", 
        "tags": [], 
        "phone": "02 34 37 09 27", 
        "address": "19 Rue du Grand March\u00e9<br />\r\n37000 Tours", 
        "lat": 47.394401, 
        "id": 4699, 
        "name": "Shelter", 
        "absolute_url": "http://vegoresto.fr/resto/shelter", 
        "lon": 0.680694000000017, 
        "international_phone_number": "+33234370927"
    }, 
    {
        "website": "", 
        "national_phone_number": "05 56 23 17 55", 
        "tags": [
            "vegan", 
            "gluten-free"
        ], 
        "phone": "05 56 23 17 55", 
        "address": "20 rue Castelnau d&#039;Auros<br />\r\n33000 Bordeaux<br />\r\n<br />", 
        "lat": 44.8407178, 
        "id": 263, 
        "name": "Smart Green Corner", 
        "absolute_url": "http://vegoresto.fr/resto/smart-green-corner", 
        "lon": -0.58172060000004, 
        "international_phone_number": "+33556231755"
    }, 
    {
        "website": "", 
        "national_phone_number": "06 42 51 75 43", 
        "tags": [
            "vegan"
        ], 
        "phone": "06 42 51 75 43", 
        "address": "rue d&#039;Alsace Lorraine<br />\r\n31000 Toulouse", 
        "lat": 43.6040106, 
        "id": 4663, 
        "name": "Snack Vegan", 
        "absolute_url": "http://vegoresto.fr/resto/snack-vegan", 
        "lon": 1.44567099999995, 
        "international_phone_number": "+33642517543"
    }, 
    {
        "website": "www.sol-semilla.fr/content/7-decouvrez-notre-restaurant", 
        "national_phone_number": "01 42 01 03 44", 
        "tags": [
            "vegan", 
            "gluten-free"
        ], 
        "phone": "01 42 01 03 44", 
        "address": "23 rue des Vinaigriers<br />\r\n75010 Paris", 
        "lat": 48.873071, 
        "id": 236, 
        "name": "Sol Semilla", 
        "absolute_url": "http://vegoresto.fr/resto/sol-semilla", 
        "lon": 2.36296200000004, 
        "international_phone_number": "+33142010344"
    }, 
    {
        "website": "www.couscous-lille.fr", 
        "national_phone_number": "03 20 31 49 71", 
        "tags": [], 
        "phone": "03 20 31 49 71", 
        "address": "5 rue Princesse<br />\r\n59800 Lille", 
        "lat": 50.6462097, 
        "id": 193, 
        "name": "Soleil d\u2019Agadir", 
        "absolute_url": "http://vegoresto.fr/resto/soleil-dagadir", 
        "lon": 3.05935640000007, 
        "international_phone_number": "+33320314971"
    }, 
    {
        "website": "www.soline.net/", 
        "national_phone_number": "04 78 60 40 43", 
        "tags": [
            "vegetarian", 
            "gluten-free"
        ], 
        "phone": "04 78 60 40 43", 
        "address": "89 rue Paul Bert,<br />\r\n69003 Lyon", 
        "lat": 45.7570246, 
        "id": 278, 
        "name": "Soline", 
        "absolute_url": "http://vegoresto.fr/resto/soline", 
        "lon": 4.85086660000002, 
        "international_phone_number": "+33478604043"
    }, 
    {
        "website": "www.soyacantinebio.blogspot.fr/", 
        "national_phone_number": "06 99 52 00 18", 
        "tags": [
            "vegetarian", 
            "gluten-free"
        ], 
        "phone": "06 99 52 00 18", 
        "address": "20 rue de la Pierre lev\u00e9e<br />\r\n75011 Paris", 
        "lat": 48.8681167, 
        "id": 257, 
        "name": "Soya", 
        "absolute_url": "http://vegoresto.fr/resto/soya-cantine-bio", 
        "lon": 2.37025829999993, 
        "international_phone_number": "+33699520018"
    }, 
    {
        "website": "", 
        "national_phone_number": "04 94 87 44 64", 
        "tags": [
            "vegan", 
            "gluten-free"
        ], 
        "phone": "04 94 87 44 64", 
        "address": "876 Chemin de la Farl\u00e8de<br />\r\n83500 La Seyne sur Mer", 
        "lat": 43.1167011, 
        "id": 4668, 
        "name": "Super G bio \u2013 La Pause Repas", 
        "absolute_url": "http://vegoresto.fr/resto/la-pause-repas", 
        "lon": 5.8496609, 
        "international_phone_number": "+33494874464"
    }, 
    {
        "website": "www.sushipearl.fr/", 
        "national_phone_number": "02 97 54 35 96", 
        "tags": [], 
        "phone": "02 97 54 35 96", 
        "address": "7 rue Alain le Grand<br />\r\n56000 Vannes", 
        "lat": 47.6584841, 
        "id": 240, 
        "name": "Sushi Pearl", 
        "absolute_url": "http://vegoresto.fr/resto/sushi-pearl", 
        "lon": -2.75452189999999, 
        "international_phone_number": "+33297543596"
    }, 
    {
        "website": "", 
        "national_phone_number": "04 91 54 17 90", 
        "tags": [
            "gluten-free"
        ], 
        "phone": "04 91 54 17 90", 
        "address": "24, Boulevard Notre-Dame<br />\r\n13006 Marseille", 
        "lat": 43.2891108, 
        "id": 196, 
        "name": "Sushi Street Caf\u00e9", 
        "absolute_url": "http://vegoresto.fr/resto/sushi-street-cafe", 
        "lon": 5.37279009999997, 
        "international_phone_number": "+33491541790"
    }, 
    {
        "website": "http://chateaulemartinet.com/site2.php3?rub=2&amp;action=licat&amp;id_sc=2", 
        "national_phone_number": "04 90 70 94 98", 
        "tags": [], 
        "phone": "04 90 70 94 98", 
        "address": "Ch\u00e2teau du Martinet<br />\r\nlieu dit le Martinet <br />\r\n3078 route de Vaison la Romaine <br />\r\n84150 Viol\u00e8s", 
        "lat": 44.1848542, 
        "id": 4031, 
        "name": "Table Gourmande le Mogador", 
        "absolute_url": "http://vegoresto.fr/resto/table-gourmande-le-mogador", 
        "lon": 4.97221390000004, 
        "international_phone_number": "+33490709498"
    }, 
    {
        "website": "http://www.terredesaveursavignon.fr/", 
        "national_phone_number": "04 90 86 68 72", 
        "tags": [], 
        "phone": "04 90 86 68 72", 
        "address": "1 rue Saint Michel<br />\r\n84000 Avignon", 
        "lat": 43.9421085, 
        "id": 4052, 
        "name": "Terre de Saveurs", 
        "absolute_url": "http://vegoresto.fr/resto/terre-de-saveur", 
        "lon": 4.81130570000005, 
        "international_phone_number": "+33490866872"
    }, 
    {
        "website": "http://londonbridge-calais.com/", 
        "national_phone_number": "03 21 85 85 79", 
        "tags": [], 
        "phone": "03 21 85 85 79", 
        "address": "12 place d&#039;Armes 62100 Calais", 
        "lat": 50.9588985, 
        "id": 4607, 
        "name": "The London Bridge", 
        "absolute_url": "http://vegoresto.fr/resto/the-london-bridge", 
        "lon": 1.850146, 
        "international_phone_number": "+33321858579"
    }, 
    {
        "website": "tien-hiang.fr/", 
        "national_phone_number": "01 42 00 08 23", 
        "tags": [
            "vegetarian"
        ], 
        "phone": "01 42 00 08 23", 
        "address": "14 rue Bichat<br />\r\n75010 Paris", 
        "lat": 48.8702708, 
        "id": 174, 
        "name": "Tien Hiang", 
        "absolute_url": "http://vegoresto.fr/resto/tien-hiang", 
        "lon": 2.36906160000001, 
        "international_phone_number": "+33142000823"
    }, 
    {
        "website": "", 
        "national_phone_number": "04 74 07 09 98", 
        "tags": [], 
        "phone": "04 74 07 09 98", 
        "address": "133 rue Anse<br />\r\n69400 Villefranche-sur-Sa\u00f4ne", 
        "lat": 45.9844339, 
        "id": 234, 
        "name": "Tout \u00e0 croquer", 
        "absolute_url": "http://vegoresto.fr/resto/tout-a-croquer", 
        "lon": 4.71837370000003, 
        "international_phone_number": "+33474070998"
    }, 
    {
        "website": "touteslescouleurs.fr/", 
        "national_phone_number": "04 72 00 03 95", 
        "tags": [
            "vegetarian", 
            "gluten-free"
        ], 
        "phone": "04 72 00 03 95", 
        "address": "26 rue Imbert Colom\u00e8s<br />\r\n69001 Lyon", 
        "lat": 45.7714076, 
        "id": 225, 
        "name": "Toutes les couleurs", 
        "absolute_url": "http://vegoresto.fr/resto/toutes-les-couleurs", 
        "lon": 4.83532660000003, 
        "international_phone_number": "+33472000395"
    }, 
    {
        "website": "http://www.unparfumdoxalis.fr/150088054", 
        "national_phone_number": "05 55 10 09 57", 
        "tags": [
            "gluten-free"
        ], 
        "phone": "05 55 10 09 57", 
        "address": "72 bis Avenue Garibaldi<br />\r\n87000 Limoges", 
        "lat": 45.8383466, 
        "id": 4672, 
        "name": "Un Parfum d\u2019Oxalis", 
        "absolute_url": "http://vegoresto.fr/resto/un-parfum-doxalis", 
        "lon": 1.25879689999999, 
        "international_phone_number": "+33555100957"
    }, 
    {
        "website": "http://unefleurdeschamps.fr/", 
        "national_phone_number": "03 90 23 60 60", 
        "tags": [
            "gluten-free"
        ], 
        "phone": "03 90 23 60 60", 
        "address": "4 rue des Charpentiers<br />\r\n67000 Strasbourg", 
        "lat": 48.5844288, 
        "id": 220, 
        "name": "Une Fleur des Champs", 
        "absolute_url": "http://vegoresto.fr/resto/une-fleur-des-champs", 
        "lon": 7.75151419999997, 
        "international_phone_number": "+33390236060"
    }, 
    {
        "website": "", 
        "national_phone_number": "06 27 44 29 67", 
        "tags": [
            "vegan"
        ], 
        "phone": "06 27 44 29 67", 
        "address": "44000 Nantes", 
        "lat": 47.2520457, 
        "id": 269, 
        "name": "Veg Mama", 
        "absolute_url": "http://vegoresto.fr/resto/veg-mama", 
        "lon": -1.49953890000006, 
        "international_phone_number": "+33627442967"
    }, 
    {
        "website": "www.vegalicious.fr/", 
        "national_phone_number": "06 78 07 23 83", 
        "tags": [
            "vegetarian"
        ], 
        "phone": "06 78 07 23 83", 
        "address": "Marseille, Aix-en Provence et Saint-Paul-lez-Durance", 
        "lat": 43.298442, 
        "id": 250, 
        "name": "Vegalicious", 
        "absolute_url": "http://vegoresto.fr/resto/vegalicious", 
        "lon": 5.37103239999999, 
        "international_phone_number": "+33678072383"
    }, 
    {
        "website": "veganfolies.fr/", 
        "national_phone_number": "01 43 37 21 89", 
        "tags": [
            "vegan", 
            "gluten-free"
        ], 
        "phone": "01 43 37 21 89", 
        "address": "53 rue Mouffetard<br />\r\n75005 Paris", 
        "lat": 48.8434104, 
        "id": 246, 
        "name": "Vegan Folie\u2019s", 
        "absolute_url": "http://vegoresto.fr/resto/vegan-folies", 
        "lon": 2.34961969999995, 
        "international_phone_number": "+33143372189"
    }, 
    {
        "website": "http://vegan-gorilla.fr/", 
        "national_phone_number": "06 60 75 10 00", 
        "tags": [
            "vegan", 
            "gluten-free"
        ], 
        "phone": "06 60 75 10 00", 
        "address": "7 rue du Lyc\u00e9e<br />\r\n06000 Nice", 
        "lat": 43.699358, 
        "id": 4008, 
        "name": "Vegan Gorilla", 
        "absolute_url": "http://vegoresto.fr/resto/vegan-gorilla", 
        "lon": 7.27426949999995, 
        "international_phone_number": "+33660751000"
    }, 
    {
        "website": "www.vegebowl.com/index.php", 
        "national_phone_number": "01 42 46 45 89", 
        "tags": [
            "vegetarian", 
            "gluten-free"
        ], 
        "phone": "01 42 46 45 89", 
        "address": "3 rue de la Boule rouge<br />\r\n75009 Paris", 
        "lat": 48.8733585, 
        "id": 237, 
        "name": "V\u00e9g\u00e9bowl", 
        "absolute_url": "http://vegoresto.fr/resto/vegebowl", 
        "lon": 2.34454419999997, 
        "international_phone_number": "+33142464589"
    }, 
    {
        "website": "http://www.vegetaletvous.fr/", 
        "national_phone_number": "03 20 51 55 06", 
        "tags": [
            "vegetarian"
        ], 
        "phone": "03 20 51 55 06", 
        "address": "241 rue Gambetta<br />\r\n59000 Lille", 
        "lat": 50.6283124, 
        "id": 4013, 
        "name": "V\u00e9g\u00e9tal et Vous", 
        "absolute_url": "http://vegoresto.fr/resto/vegetal-et-vous", 
        "lon": 3.05252180000002, 
        "international_phone_number": "+33320515506"
    }, 
    {
        "website": "http://veggyvan.fr", 
        "national_phone_number": "06 67 07 79 05", 
        "tags": [
            "vegan"
        ], 
        "phone": "06 67 07 79 05", 
        "address": "83390 Cuers", 
        "lat": 43.2618627, 
        "id": 4039, 
        "name": "Veggyvan", 
        "absolute_url": "http://vegoresto.fr/resto/veggyvan", 
        "lon": 6.13149279999993, 
        "international_phone_number": "+33667077905"
    }, 
    {
        "website": "http://vegartparis.com/", 
        "national_phone_number": "09 83 87 29 68", 
        "tags": [
            "vegan"
        ], 
        "phone": "09 83 87 29 68", 
        "address": "123 rue Oberkampf<br />\r\n75011 Paris", 
        "lat": 48.8661874, 
        "id": 291, 
        "name": "Veg\u2019Art", 
        "absolute_url": "http://vegoresto.fr/resto/vegart", 
        "lon": 2.37907519999999, 
        "international_phone_number": "+33983872968"
    }, 
    {
        "website": "", 
        "national_phone_number": "06 20 32 01 71", 
        "tags": [
            "vegan"
        ], 
        "phone": "06 20 32 01 71", 
        "address": "51100 Reims", 
        "lat": 49.258329, 
        "id": 212, 
        "name": "Veg\u2019Ga\u00efa", 
        "absolute_url": "http://vegoresto.fr/resto/veggaia", 
        "lon": 4.03169600000001, 
        "international_phone_number": "+33620320171"
    }, 
    {
        "website": "http://www.velicious.fr/", 
        "national_phone_number": "09 72 53 07 35", 
        "tags": [
            "vegan"
        ], 
        "phone": "09 72 53 07 35", 
        "address": "43 rue Geiler<br />\r\n67000 Strasbourg", 
        "lat": 48.5860789, 
        "id": 4015, 
        "name": "Velicious", 
        "absolute_url": "http://vegoresto.fr/resto/velicious", 
        "lon": 7.77080679999995, 
        "international_phone_number": "+33972530735"
    }, 
    {
        "website": "http://velovege.fr/", 
        "national_phone_number": null, 
        "tags": [
            "vegan"
        ], 
        "phone": "", 
        "address": "31000 Toulouse", 
        "lat": 43.6046256, 
        "id": 4678, 
        "name": "V\u00e9lo V\u00e9g\u00e9", 
        "absolute_url": "http://vegoresto.fr/resto/velo-vege", 
        "lon": 1.44420500000001, 
        "international_phone_number": null
    }, 
    {
        "website": "www.my-vg.fr/", 
        "national_phone_number": "01 44 63 87 37", 
        "tags": [
            "vegetarian", 
            "gluten-free"
        ], 
        "phone": "01 44 63 87 37", 
        "address": "85 rue Lafayette<br />\r\n75009 Paris", 
        "lat": 48.8770844, 
        "id": 170, 
        "name": "VG", 
        "absolute_url": "http://vegoresto.fr/resto/vg", 
        "lon": 2.34800789999997, 
        "international_phone_number": "+33144638737"
    }, 
    {
        "website": "", 
        "national_phone_number": "01 74 64 92 18", 
        "tags": [
            "vegetarian"
        ], 
        "phone": "01 74 64 92 18", 
        "address": "48 rue de Clery<br />\r\n75002 Paris", 
        "lat": 48.8683641, 
        "id": 4023, 
        "name": "Vietnam in Paris, Saveurs du Vietnam", 
        "absolute_url": "http://vegoresto.fr/resto/vietnam-in-paris-saveurs-du-vietnam", 
        "lon": 2.34789780000006, 
        "international_phone_number": "+33174649218"
    }, 
    {
        "website": "http://www.villakerasy.com/cuisine-ayurvedique/", 
        "national_phone_number": "02 97 68 36 83", 
        "tags": [], 
        "phone": "02 97 68 36 83", 
        "address": "20 avenue Favrel et Lincy<br />\r\n56000 Vannes", 
        "lat": 47.6642759, 
        "id": 4049, 
        "name": "Villa Kerasy Hotel Spa", 
        "absolute_url": "http://vegoresto.fr/resto/villa-kerasy-hotel-spa", 
        "lon": -2.75378980000005, 
        "international_phone_number": "+33297683683"
    }, 
    {
        "website": "vipizza.fr", 
        "national_phone_number": "03 20 31 70 77", 
        "tags": [], 
        "phone": "03 20 31 70 77", 
        "address": "107 rue Sadi Carnot<br />\r\n59350 Saint Andr\u00e9 lez Lille", 
        "lat": 50.661118, 
        "id": 273, 
        "name": "VIP \u2013 Pizzeria Italiana", 
        "absolute_url": "http://vegoresto.fr/resto/vip-pizzeria-italiana", 
        "lon": 3.05529839999997, 
        "international_phone_number": "+33320317077"
    }, 
    {
        "website": "", 
        "national_phone_number": "02 38 43 85 75", 
        "tags": [], 
        "phone": "02 38 43 85 75", 
        "address": "5 rue de la Cerche<br />\r\n45000 Orl\u00e9ans", 
        "lat": 47.9036098, 
        "id": 4645, 
        "name": "Voici venu le temps", 
        "absolute_url": "http://vegoresto.fr/resto/voici-venu-le-temps", 
        "lon": 1.90317349999998, 
        "international_phone_number": "+33238438575"
    }, 
    {
        "website": "http://wallyscoffee.fr/", 
        "national_phone_number": "06 51 50 17 20", 
        "tags": [], 
        "phone": "06 51 50 17 20", 
        "address": "19 Place Philippe Lebon<br />\r\n59000 Lille", 
        "lat": 50.6275057, 
        "id": 4674, 
        "name": "Wally\u2019s Coffee", 
        "absolute_url": "http://vegoresto.fr/resto/wallys-coffee", 
        "lon": 3.06217379999998, 
        "international_phone_number": "+33651501720"
    }, 
    {
        "website": "http://whatthecake.fr/", 
        "national_phone_number": "03 69 08 21 41", 
        "tags": [
            "gluten-free"
        ], 
        "phone": "03 69 08 21 41", 
        "address": "51 rue du foss\u00e9 des tanneurs <br />\r\n67000 Strasbourg", 
        "lat": 48.582132, 
        "id": 4016, 
        "name": "What the Cake ?", 
        "absolute_url": "http://vegoresto.fr/resto/what-the-cake", 
        "lon": 7.74316780000004, 
        "international_phone_number": "+33369082141"
    }, 
    {
        "website": "http://yabio.fr/", 
        "national_phone_number": null, 
        "tags": [], 
        "phone": "en cours", 
        "address": "19 rue du Garet<br />\r\n69001 Lyon", 
        "lat": 45.766297, 
        "id": 4025, 
        "name": "Yabio", 
        "absolute_url": "http://vegoresto.fr/resto/yabio", 
        "lon": 4.83691959999999, 
        "international_phone_number": null
    }, 
    {
        "website": "www.restaurant-youna.com/", 
        "national_phone_number": "02 40 12 41 58", 
        "tags": [], 
        "phone": "02 40 12 41 58", 
        "address": "10 Bis Rue de l&#039;h\u00f4tel de ville<br />\r\n44000 Nantes", 
        "lat": 47.2178618, 
        "id": 206, 
        "name": "Youna", 
        "absolute_url": "http://vegoresto.fr/resto/youna", 
        "lon": -1.55669940000007, 
        "international_phone_number": "+33240124158"
    }
]